City_ID,City,Country,Date,Lat,Lng,Max Temp,Humidity,Cloudiness,Wind Speed
0,Tskaltubo,GE,2022-01-16 23:10:32,42.3254,42.5979,31.14,100,100,1.14
1,Walvis Bay,NA,2022-01-16 23:10:32,-22.9575,14.5053,68.09,81,88,8.5
2,Port Elizabeth,ZA,2022-01-16 23:10:33,-33.918,25.5701,72.1,85,100,9.06
3,Cabo San Lucas,MX,2022-01-16 23:09:29,22.8909,-109.9124,83.52,72,20,3.0
4,Rikitea,PF,2022-01-16 23:10:33,-23.1203,-134.9692,77.34,70,34,7.45
5,Jamestown,US,2022-01-16 23:10:33,42.097,-79.2353,27.99,62,100,11.99
6,Hobart,AU,2022-01-16 23:10:34,-42.8794,147.3294,74.05,57,40,1.99
7,Kapaa,US,2022-01-16 23:10:34,22.0752,-159.319,79.12,73,20,1.01
8,Mar Del Plata,AR,2022-01-16 23:05:39,-38.0023,-57.5575,74.08,86,42,4.0
9,Richmond,US,2022-01-16 23:10:34,37.5538,-77.4603,36.34,94,100,5.99
10,Dumbraveni,RO,2022-01-16 23:10:35,46.2333,24.5667,22.5,69,100,0.45
11,Dikson,RU,2022-01-16 23:10:35,73.5069,80.5464,9.68,91,100,24.74
12,Muros,ES,2022-01-16 23:10:35,42.7762,-9.0603,55.24,94,100,5.39
13,Yashan,CN,2022-01-16 23:10:36,22.1975,109.9419,57.52,80,99,8.01
14,Ulagan,RU,2022-01-16 23:10:36,50.6321,87.9563,23.25,84,100,3.18
15,Faanui,PF,2022-01-16 23:10:36,-16.4833,-151.75,80.22,81,100,15.35
16,Nikolskoye,RU,2022-01-16 23:10:37,59.7035,30.7861,34.88,98,100,13.18
17,Sao Filipe,CV,2022-01-16 23:10:37,14.8961,-24.4956,71.51,71,0,3.62
18,Hamilton,US,2022-01-16 23:10:37,39.1834,-84.5333,32.63,84,100,1.99
19,Sao Jose Da Coroa Grande,BR,2022-01-16 23:10:38,-8.8978,-35.1478,79.16,76,65,8.48
20,Kruisfontein,ZA,2022-01-16 23:10:38,-34.0033,24.7314,69.89,88,12,4.9
21,Thompson,CA,2022-01-16 23:10:38,55.7435,-97.8558,-9.6,95,100,4.65
22,Atasu,KZ,2022-01-16 23:10:39,48.6814,71.6433,22.24,95,99,9.57
23,Bredasdorp,ZA,2022-01-16 23:10:39,-34.5322,20.0403,65.46,82,36,3.27
24,Avarua,CK,2022-01-16 23:10:39,-21.2078,-159.775,84.25,74,75,21.85
25,Hermanus,ZA,2022-01-16 23:10:40,-34.4187,19.2345,66.9,90,22,4.05
26,Pangnirtung,CA,2022-01-16 23:10:40,66.1451,-65.7125,-13.88,67,0,5.73
27,Noumea,NC,2022-01-16 23:10:40,-22.2763,166.4572,85.98,99,3,11.83
28,Loandjili,CG,2022-01-16 23:10:41,-4.7561,11.8578,77.29,85,93,9.33
29,Sterling,US,2022-01-16 23:10:41,39.0062,-77.4286,29.7,92,100,1.01
30,Cidreira,BR,2022-01-16 23:10:41,-30.1811,-50.2056,76.96,87,100,7.4
31,Alofi,NU,2022-01-16 23:10:42,-19.0595,-169.9187,79.97,68,37,10.87
32,Pacific Grove,US,2022-01-16 23:10:42,36.6177,-121.9166,71.28,53,80,1.99
33,Sangar,RU,2022-01-16 23:10:42,63.9242,127.4739,-49.65,100,92,0.49
34,Ostrovnoy,RU,2022-01-16 23:10:43,68.0531,39.5131,26.51,87,100,22.46
35,Upernavik,GL,2022-01-16 23:10:43,72.7868,-56.1549,-17.66,94,3,5.61
36,Bluff,NZ,2022-01-16 23:10:43,-46.6,168.3333,65.26,58,96,5.55
37,Punta Arenas,CL,2022-01-16 23:10:44,-53.15,-70.9167,48.31,46,0,19.57
38,Atuona,PF,2022-01-16 23:10:44,-9.8,-139.0333,78.42,78,88,20.62
39,Hilo,US,2022-01-16 23:07:05,19.7297,-155.09,82.13,75,0,11.5
40,Hofn,IS,2022-01-16 23:10:44,64.2539,-15.2082,29.14,92,100,7.4
41,Castro,BR,2022-01-16 23:07:18,-24.7911,-50.0119,64.06,98,84,4.54
42,Ketchikan,US,2022-01-16 23:10:45,55.3422,-131.6461,39.18,100,100,5.75
43,Rocha,UY,2022-01-16 23:10:45,-34.4833,-54.3333,74.89,87,63,8.93
44,Kavarna,BG,2022-01-16 23:10:46,43.4333,28.3333,34.57,77,29,12.1
45,Moberly,US,2022-01-16 23:10:46,39.4184,-92.4382,29.03,85,100,13.8
46,Salair,RU,2022-01-16 23:10:46,54.2312,85.7972,34.27,88,100,13.73
47,Houma,US,2022-01-16 23:11:46,29.5958,-90.7195,50.0,64,0,10.36
48,Ushuaia,AR,2022-01-16 23:10:14,-54.8,-68.3,38.86,75,75,13.8
49,Geraldton,AU,2022-01-16 23:11:47,-28.7667,114.6,71.13,82,19,9.22
50,Nanortalik,GL,2022-01-16 23:11:47,60.1432,-45.2371,25.93,77,95,15.19
51,Matara,LK,2022-01-16 23:11:47,5.9485,80.5353,73.36,90,51,9.69
52,Anadyr,RU,2022-01-16 23:11:48,64.75,177.4833,-25.1,75,0,4.47
53,Vaini,TO,2022-01-16 23:11:48,-21.2,-175.2,80.13,82,26,14.47
54,Guerrero Negro,MX,2022-01-16 23:11:48,27.9769,-114.0611,69.69,38,78,13.8
55,Provideniya,RU,2022-01-16 23:11:49,64.3833,-173.3,3.31,60,0,13.42
56,Pudozh,RU,2022-01-16 23:11:49,61.8099,36.5345,29.26,95,100,13.4
57,Port Hardy,CA,2022-01-16 23:11:49,50.6996,-127.4199,47.75,95,100,14.54
58,Horasan,TR,2022-01-16 23:11:50,40.0458,42.1728,-8.32,93,16,1.43
59,Troitsko-Pechorsk,RU,2022-01-16 23:11:50,62.7084,56.1964,-9.96,100,87,2.17
60,Albany,US,2022-01-16 23:11:50,42.6001,-73.9662,23.58,54,83,8.32
61,Qaqortoq,GL,2022-01-16 23:11:50,60.7167,-46.0333,36.1,82,100,9.64
62,Saskylakh,RU,2022-01-16 23:11:51,71.9167,114.0833,-24.34,94,9,13.38
63,Saldanha,ZA,2022-01-16 23:11:51,-33.0117,17.9442,64.06,91,45,7.27
64,Ibirataia,BR,2022-01-16 23:11:51,-14.0669,-39.6406,70.25,84,32,2.13
65,Busselton,AU,2022-01-16 23:11:52,-33.65,115.3333,58.08,69,1,13.06
66,Perumpavur,IN,2022-01-16 23:11:52,10.1333,76.4833,73.31,100,40,2.3
67,Bratsk,RU,2022-01-16 23:11:52,56.1325,101.6142,7.29,98,100,3.09
68,San-Pedro,CI,2022-01-16 23:11:53,4.7485,-6.6363,78.94,88,20,4.9
69,Hithadhoo,MV,2022-01-16 23:11:53,-0.6,73.0833,80.26,74,99,1.86
70,Coahuayana,MX,2022-01-16 23:11:53,18.7333,-103.6833,85.48,65,48,6.82
71,Cape Town,ZA,2022-01-16 23:07:33,-33.9258,18.4232,67.12,68,28,1.01
72,Camopi,GF,2022-01-16 23:11:54,3.1655,-52.3158,72.77,99,100,2.04
73,Petaluma,US,2022-01-16 23:10:59,38.2324,-122.6367,65.88,70,0,1.99
74,Calamar,CO,2022-01-16 23:11:54,10.2511,-74.9146,82.35,56,48,10.76
75,Bowen,AU,2022-01-16 23:11:54,-20.0167,148.2333,85.6,65,80,7.58
76,Goderich,CA,2022-01-16 23:10:23,43.7501,-81.7165,19.9,73,5,11.01
77,Khatanga,RU,2022-01-16 23:11:55,71.9667,102.5,-16.69,92,25,5.84
78,Inta,RU,2022-01-16 23:11:55,66.0317,60.1659,-11.69,100,98,3.69
79,Laguna,US,2022-01-16 23:11:55,38.421,-121.4238,66.43,69,0,1.01
80,Juneau,US,2022-01-16 23:11:56,58.3019,-134.4197,38.84,95,100,0.0
81,Bubaque,GW,2022-01-16 23:11:56,11.2833,-15.8333,78.42,81,89,9.98
82,Tuktoyaktuk,CA,2022-01-16 23:11:56,69.4541,-133.0374,-30.62,99,17,6.69
83,Corinto,GR,2022-01-16 23:11:57,37.9407,22.9573,44.69,80,3,2.84
84,Fort Nelson,CA,2022-01-16 23:11:57,58.8053,-122.7002,4.51,93,100,3.87
85,Hualmay,PE,2022-01-16 23:11:57,-11.0964,-77.6139,74.07,75,51,9.93
86,Mabamba,TZ,2022-01-16 23:11:58,-3.5983,30.5019,61.03,93,100,2.68
87,Airai,TL,2022-01-16 23:11:58,-8.9266,125.4092,65.14,82,100,1.86
88,Esperance,AU,2022-01-16 23:11:58,-33.8667,121.9,64.47,63,48,15.26
89,Yellowknife,CA,2022-01-16 23:11:58,62.456,-114.3525,-10.59,86,79,5.01
90,Puerto Ayora,EC,2022-01-16 23:11:59,-0.7393,-90.3518,74.44,80,99,10.0
91,Msowero,TZ,2022-01-16 23:11:59,-6.5333,37.2,70.81,93,100,1.28
92,Teya,RU,2022-01-16 23:13:00,60.3778,92.6267,-8.0,100,99,2.66
93,Mahebourg,MU,2022-01-16 23:13:00,-20.4081,57.7,78.26,88,40,3.44
94,Meulaboh,ID,2022-01-16 23:13:00,4.1363,96.1285,74.8,90,32,4.5
95,Qaanaaq,GL,2022-01-16 23:13:01,77.484,-69.3632,-6.43,59,0,7.0
96,Erzin,TR,2022-01-16 23:13:01,36.9559,36.2,36.32,46,0,6.4
97,Labuhan,ID,2022-01-16 23:13:01,-6.8844,112.2051,78.51,84,100,8.57
98,Iwaki,JP,2022-01-16 23:13:02,37.05,140.8833,42.03,60,12,7.0
99,Bayangol,RU,2022-01-16 23:13:02,50.6977,103.4656,-7.92,89,35,3.11
100,Batemans Bay,AU,2022-01-16 23:13:02,-35.7167,150.1833,83.19,58,76,5.5
101,Araouane,ML,2022-01-16 23:13:03,18.9048,-3.5265,58.89,20,96,11.41
102,Honningsvag,NO,2022-01-16 23:13:03,70.9821,25.9704,25.99,65,100,25.05
103,Arman,RU,2022-01-16 23:13:03,59.7,150.1667,-7.02,79,1,8.99
104,Hasaki,JP,2022-01-16 23:13:04,35.7333,140.8333,30.6,57,98,7.92
105,Butaritari,KI,2022-01-16 23:13:04,3.0707,172.7902,82.2,78,34,16.4
106,Arraial Do Cabo,BR,2022-01-16 23:13:04,-22.9661,-42.0278,76.86,78,0,14.97
107,Mataura,NZ,2022-01-16 23:13:05,-46.1927,168.8643,65.5,54,100,3.0
108,Ancud,CL,2022-01-16 23:13:05,-41.8697,-73.8203,52.23,56,26,10.69
109,Kushiro,JP,2022-01-16 23:13:05,42.975,144.3747,29.35,100,100,11.5
110,East London,ZA,2022-01-16 23:13:06,-33.0153,27.9116,75.24,88,49,2.59
111,Kurchum,KZ,2022-01-16 23:13:06,48.5722,83.6542,19.94,86,100,3.2
112,Kahului,US,2022-01-16 23:13:06,20.8947,-156.47,83.46,72,20,12.66
113,Coruripe,BR,2022-01-16 23:09:26,-10.1256,-36.1756,78.26,73,7,7.92
114,Pevek,RU,2022-01-16 23:13:07,69.7008,170.3133,-25.62,96,39,1.95
115,Saint-Philippe,RE,2022-01-16 23:13:07,-21.3585,55.7679,78.39,86,98,6.6
116,Bar Harbor,US,2022-01-16 23:13:07,44.3876,-68.2039,23.02,55,0,3.0
117,Lagoa,PT,2022-01-16 23:13:08,39.05,-27.9833,55.99,55,68,14.7
118,Barrow,US,2022-01-16 23:13:08,71.2906,-156.7887,-16.58,69,100,0.0
119,Souillac,MU,2022-01-16 23:13:08,-20.5167,57.5167,78.37,88,40,3.44
120,Luderitz,NA,2022-01-16 23:13:08,-26.6481,15.1594,68.31,83,0,11.21
121,Harindanga,IN,2022-01-16 23:13:09,22.0383,88.3214,57.18,45,0,7.87
122,General Cepeda,MX,2022-01-16 23:13:09,25.3833,-101.45,59.77,13,30,6.24
123,Cherskiy,RU,2022-01-16 23:13:09,68.75,161.3,-36.47,100,12,4.63
124,Moses Lake,US,2022-01-16 23:10:52,47.1301,-119.2781,36.18,86,100,3.44
125,Tiksi,RU,2022-01-16 23:13:10,71.6872,128.8694,-24.57,98,39,6.42
126,Abha,SA,2022-01-16 23:13:10,18.2164,42.5053,55.65,58,0,6.91
127,Paro,BT,2022-01-16 23:13:10,27.4305,89.4133,32.99,26,3,6.85
128,Namibe,AO,2022-01-16 23:13:11,-15.1961,12.1522,68.11,78,55,4.47
129,Maniitsoq,GL,2022-01-16 23:13:11,65.4167,-52.9,13.19,82,100,11.61
130,Broken Hill,AU,2022-01-16 23:13:12,-31.95,141.4333,75.47,44,100,16.73
131,Lebu,CL,2022-01-16 23:13:12,-37.6167,-73.65,57.31,60,73,13.73
132,Codrington,AU,2022-01-16 23:13:12,-38.2667,141.9667,65.23,73,100,12.44
133,Surt,LY,2022-01-16 23:13:13,31.2089,16.5887,57.79,74,13,7.27
134,Vila Franca Do Campo,PT,2022-01-16 23:13:13,37.7167,-25.4333,57.61,74,27,12.17
135,Ponta Do Sol,PT,2022-01-16 23:14:13,32.6667,-17.1,65.03,72,87,18.77
136,Port Alfred,ZA,2022-01-16 23:14:14,-33.5906,26.891,71.44,92,99,13.0
137,Nouadhibou,MR,2022-01-16 23:14:14,20.931,-17.0347,68.83,63,99,13.35
138,Iwanai,JP,2022-01-16 23:14:14,42.9744,140.5089,31.15,93,100,16.24
139,Dudinka,RU,2022-01-16 23:14:15,69.4058,86.1778,11.62,89,100,25.26
140,Bambous Virieux,MU,2022-01-16 23:14:15,-20.3428,57.7575,78.22,88,40,3.44
141,Mugur-Aksy,RU,2022-01-16 23:14:15,50.35,90.5,10.78,72,98,6.64
142,Shenjiamen,CN,2022-01-16 23:14:16,29.9576,122.298,46.74,76,100,8.05
143,Kiama,AU,2022-01-16 23:14:16,-34.6833,150.8667,85.24,74,19,10.0
144,Chuy,UY,2022-01-16 23:14:16,-33.6971,-53.4616,74.68,90,83,8.08
145,Bac Lieu,VN,2022-01-16 23:14:17,9.285,105.7244,75.87,82,47,15.32
146,Longyearbyen,SJ,2022-01-16 23:14:17,78.2186,15.6401,6.64,78,40,5.75
147,Vila Velha,BR,2022-01-16 23:14:17,-20.3297,-40.2925,80.55,84,40,4.0
148,Dzhebariki-Khaya,RU,2022-01-16 23:14:18,62.2167,135.8,-43.62,100,65,1.16
149,Polyarnyy,RU,2022-01-16 23:14:18,69.1989,33.4478,21.47,94,100,24.38
150,Kaitangata,NZ,2022-01-16 23:14:18,-46.2817,169.8464,65.05,67,98,1.9
151,Sao Gabriel Da Cachoeira,BR,2022-01-16 23:14:19,-0.1303,-67.0892,74.57,97,100,0.63
152,Ransang,PH,2022-01-16 23:14:19,8.9603,117.5828,77.18,82,88,4.63
153,Severo-Yeniseyskiy,RU,2022-01-16 23:14:19,60.3725,93.0408,-8.27,100,94,3.71
154,Flinders,AU,2022-01-16 23:14:20,-34.5833,150.8552,85.05,79,16,4.0
155,Muskogee,US,2022-01-16 23:14:20,35.5834,-95.3336,43.34,75,0,3.44
156,Maxixe,MZ,2022-01-16 23:11:06,-23.8597,35.3472,75.36,71,79,7.92
157,Lahad Datu,MY,2022-01-16 23:14:21,5.0268,118.327,73.74,94,94,5.21
158,Nahan,IN,2022-01-16 23:14:21,30.55,77.3,47.5,60,84,1.63
159,Sinnamary,GF,2022-01-16 23:14:21,5.3833,-52.95,77.31,85,96,11.72
160,Hovd,MN,2022-01-16 23:14:22,48.0056,91.6419,3.16,81,90,4.16
161,Clyde River,CA,2022-01-16 23:14:22,70.4692,-68.5914,-7.37,77,75,21.85
162,Gubbi,IN,2022-01-16 23:14:22,13.3106,76.9444,65.86,80,88,6.2
163,Cap Malheureux,MU,2022-01-16 23:14:23,-19.9842,57.6142,78.48,84,13,4.25
164,Antipovka,RU,2022-01-16 23:14:23,49.8299,45.3122,12.76,95,19,9.55
165,Cumpas,MX,2022-01-16 23:14:23,29.9833,-109.7833,72.63,21,8,2.98
166,Sept-Iles,CA,2022-01-16 23:14:23,50.2001,-66.3821,11.05,63,75,11.99
167,Blyth,GB,2022-01-16 23:14:24,55.1271,-1.5086,43.09,82,0,4.0
168,Coquimbo,CL,2022-01-16 23:14:24,-29.9533,-71.3436,67.73,68,0,12.66
169,Svetlogorsk,BY,2022-01-16 23:14:24,52.6333,29.7333,28.72,80,96,13.8
170,Tuatapere,NZ,2022-01-16 23:14:25,-46.1333,167.6833,75.81,51,90,6.11
171,Sistranda,NO,2022-01-16 23:14:25,63.7256,8.834,33.76,75,100,51.67
172,Ozinki,RU,2022-01-16 23:14:25,51.1786,49.6769,2.21,99,67,5.41
173,Kununurra,AU,2022-01-16 23:14:26,-15.7667,128.7333,80.58,89,40,0.0
174,Mangochi,MW,2022-01-16 23:14:26,-14.4782,35.2645,70.29,87,95,2.75
175,Balezino,RU,2022-01-16 23:14:26,57.9796,53.0106,4.69,98,99,8.1
176,Acajutla,SV,2022-01-16 23:14:27,13.5928,-89.8275,93.54,65,8,6.58
177,Ribeira Grande,PT,2022-01-16 23:14:27,38.5167,-28.7,56.5,66,26,18.68
178,Gorin,RU,2022-01-16 23:14:27,51.1983,136.6669,5.7,95,100,8.05
179,Olonets,RU,2022-01-16 23:14:28,60.9847,32.9698,32.74,98,100,16.24
180,Barahona,DO,2022-01-16 23:15:28,18.2085,-71.1008,76.82,78,20,6.91
181,Bhind,IN,2022-01-16 23:15:28,26.5642,78.7883,44.33,52,0,2.17
182,Letlhakane,BW,2022-01-16 23:15:29,-21.4167,25.5833,75.0,59,79,6.11
183,Port Lincoln,AU,2022-01-16 23:15:15,-34.7333,135.8667,66.56,70,100,13.09
184,Urumqi,CN,2022-01-16 23:12:02,43.801,87.6005,4.15,85,9,0.0
185,Aswan,EG,2022-01-16 23:15:30,24.0934,32.907,49.14,41,0,7.76
186,Sofikon,GR,2022-01-16 23:15:31,37.8,23.05,38.32,80,2,2.57
187,Georgetown,MY,2022-01-16 23:15:14,5.4112,100.3354,79.9,84,20,0.0
188,Sun City West,US,2022-01-16 23:12:07,33.662,-112.3413,73.98,17,0,1.99
189,Gat,IL,2022-01-16 23:15:31,31.61,34.7642,46.4,100,79,6.17
190,Noyon,FR,2022-01-16 23:15:31,49.5833,3.0,45.12,96,94,2.57
191,Acapulco,MX,2022-01-16 23:12:45,16.8634,-99.8901,84.02,65,40,4.61
192,Dangriga,BZ,2022-01-16 23:15:32,16.9692,-88.2321,75.16,82,14,13.56
193,Ilulissat,GL,2022-01-16 23:15:32,69.2167,-51.1,3.22,55,40,6.91
194,Komsomolskiy,UZ,2022-01-16 23:15:32,40.4272,71.7189,41.72,48,96,9.22
195,Mao,ES,2022-01-16 23:15:33,39.8885,4.2658,43.36,75,0,5.75
196,Khorramabad,IR,2022-01-16 23:15:33,33.4878,48.3558,44.22,53,75,6.91
197,Atascadero,US,2022-01-16 23:15:34,35.4894,-120.6707,68.63,50,44,1.01
198,Monte Alegre,BR,2022-01-16 23:15:34,-2.0078,-54.0692,79.25,77,21,3.38
199,Uzice,RS,2022-01-16 23:15:35,43.8586,19.8488,16.43,89,18,4.05
200,Camacha,PT,2022-01-16 23:15:35,33.0833,-16.3333,62.02,68,20,21.85
201,Ayan,RU,2022-01-16 23:15:35,56.45,138.1667,-7.74,79,44,10.16
202,Bathsheba,BB,2022-01-16 23:15:36,13.2167,-59.5167,77.61,69,20,17.27
203,Husavik,IS,2022-01-16 23:15:36,66.0449,-17.3389,21.11,93,100,10.16
204,Atagay,RU,2022-01-16 23:15:36,55.1033,99.3875,11.41,95,98,2.57
205,Baherden,TM,2022-01-16 23:15:37,38.4362,57.4316,36.0,88,30,0.76
206,Maniwaki,CA,2022-01-16 23:15:37,46.3834,-75.966,0.14,65,5,1.14
207,San Felipe,VE,2022-01-16 23:15:37,10.3399,-68.7425,73.24,89,60,6.17
208,Pascagoula,US,2022-01-16 23:15:38,30.3658,-88.5561,45.03,76,100,6.91
209,Ambilobe,MG,2022-01-16 23:15:38,-13.2,49.05,76.46,93,98,2.19
210,New Norfolk,AU,2022-01-16 23:15:38,-42.7826,147.0587,73.71,42,11,5.01
211,Chokurdakh,RU,2022-01-16 23:15:39,70.6333,147.9167,-41.01,99,85,6.53
212,Kodiak,US,2022-01-16 23:15:39,57.79,-152.4072,31.51,55,0,5.75
213,Praia Da Vitoria,PT,2022-01-16 23:15:39,38.7333,-27.0667,55.65,71,75,12.26
214,Enshi,CN,2022-01-16 23:15:40,30.3,109.4833,42.19,95,100,0.72
215,Rio Grande,BR,2022-01-16 23:15:40,-32.035,-52.0986,75.94,95,95,13.53
216,Denpasar,ID,2022-01-16 23:15:40,-8.65,115.2167,79.18,83,99,2.71
217,Norman Wells,CA,2022-01-16 23:15:41,65.282,-126.8329,-29.16,68,20,2.3
218,Lorengau,PG,2022-01-16 23:15:41,-2.0226,147.2712,82.45,79,96,2.73
219,Koroni,GR,2022-01-16 23:15:41,36.8,21.95,51.08,73,85,4.38
220,Benguela,AO,2022-01-16 23:15:42,-12.5763,13.4055,74.03,81,49,5.53
221,Chilca,PE,2022-01-16 23:15:42,-12.5211,-76.7372,76.08,78,37,7.09
222,Emba,KZ,2022-01-16 23:15:43,48.8264,58.1442,23.0,94,99,15.57
223,Nioro,GM,2022-01-16 23:15:43,13.35,-15.75,78.21,54,100,5.5
224,Yumen,CN,2022-01-16 23:15:43,40.2833,97.2,20.62,50,66,4.68
225,Plettenberg Bay,ZA,2022-01-16 23:15:44,-34.0527,23.3716,68.11,83,24,2.39
226,Nova Odesa,UA,2022-01-16 23:15:44,47.3078,31.7851,29.68,76,22,7.99
227,Aklavik,CA,2022-01-16 23:15:44,68.2191,-135.0107,-28.37,100,72,6.33
228,Naryan-Mar,RU,2022-01-16 23:15:45,67.6713,53.087,-5.42,100,60,8.63
229,Agoo,PH,2022-01-16 23:16:45,16.0833,120.1,71.87,71,24,11.54
230,Los Llanos De Aridane,ES,2022-01-16 23:16:45,28.6585,-17.9182,67.12,42,98,5.01
231,Sauda,NO,2022-01-16 23:16:46,59.6506,6.3542,35.02,97,100,18.3
232,Harlingen,US,2022-01-16 23:16:46,26.1906,-97.6961,67.33,18,0,4.61
233,Dingle,PH,2022-01-16 23:16:46,10.9995,122.6711,72.5,92,99,9.69
234,Marsh Harbour,BS,2022-01-16 23:16:47,26.5412,-77.0636,74.17,73,85,26.93
235,Saint George,US,2022-01-16 23:16:47,37.1041,-113.5841,61.36,34,0,1.99
236,Severo-Kurilsk,RU,2022-01-16 23:16:47,50.6789,156.125,25.74,65,18,10.42
237,Banepa,NP,2022-01-16 23:16:47,27.6298,85.5214,41.32,100,75,2.3
238,Leningradskiy,RU,2022-01-16 23:16:48,69.3833,178.4167,-26.23,96,24,4.63
239,Palmer,US,2022-01-16 23:16:48,42.1584,-72.3287,24.85,58,100,0.0
240,Santo Antonio Do Ica,BR,2022-01-16 23:16:48,-3.1022,-67.9397,75.4,95,95,1.16
241,Lompoc,US,2022-01-16 23:14:07,34.6391,-120.4579,72.57,53,100,8.05
242,Limbang,MY,2022-01-16 23:16:49,4.75,115.0,79.11,93,99,2.24
243,Vilhena,BR,2022-01-16 23:16:49,-12.7406,-60.1458,80.82,65,20,5.75
244,Isangel,VU,2022-01-16 23:16:50,-19.55,169.2667,86.11,70,20,2.3
245,Dankov,RU,2022-01-16 23:16:50,53.2515,39.1555,14.34,96,52,9.48
246,Carroll,US,2022-01-16 23:16:50,39.5501,-77.0164,28.17,85,100,5.99
247,Tasiilaq,GL,2022-01-16 23:16:50,65.6145,-37.6368,19.56,94,100,10.83
248,Dakar,SN,2022-01-16 23:12:06,14.6937,-17.4441,74.28,84,94,14.5
249,Simi,SL,2022-01-16 23:16:51,9.5667,-12.35,78.51,70,90,5.95
250,Oksfjord,NO,2022-01-16 23:16:51,70.2396,22.3479,25.72,89,100,15.99
251,Vardo,NO,2022-01-16 23:16:52,70.3705,31.1107,23.2,62,100,28.88
252,Narasannapeta,IN,2022-01-16 23:16:52,18.4167,84.05,66.69,85,7,5.88
253,Paulinia,BR,2022-01-16 23:16:53,-22.7611,-47.1542,77.94,86,74,1.28
254,Talnakh,RU,2022-01-16 23:16:53,69.4865,88.3972,11.21,87,100,17.43
255,Villamontes,BO,2022-01-16 23:16:53,-21.25,-63.5,87.67,46,23,10.47
256,Viru,PE,2022-01-16 23:16:54,-8.4167,-78.75,69.1,73,91,5.86
257,Whyalla,AU,2022-01-16 23:16:54,-33.0333,137.5833,69.31,65,100,16.22
258,Sagua La Grande,CU,2022-01-16 23:16:54,22.8067,-80.0756,67.19,78,68,16.4
259,Mount Isa,AU,2022-01-16 23:16:55,-20.7333,139.5,92.97,33,100,13.8
260,Opuwo,NA,2022-01-16 23:16:55,-18.0607,13.84,65.8,50,62,6.11
261,Nichinan,JP,2022-01-16 23:16:56,31.6,131.3667,44.28,67,99,7.81
262,Wewak,PG,2022-01-16 23:16:56,-3.5534,143.6268,78.24,89,99,8.08
263,Duluth,US,2022-01-16 23:13:04,46.7833,-92.1066,25.29,80,100,1.01
264,Bethel,US,2022-01-16 23:15:23,41.3712,-73.414,31.59,78,75,1.99
265,Mount Gambier,AU,2022-01-16 23:16:56,-37.8333,140.7667,65.05,62,95,10.51
266,Becerril,CO,2022-01-16 23:16:57,9.7041,-73.2793,87.39,42,68,4.32
267,Jiangyou,CN,2022-01-16 23:16:57,31.7667,104.7167,43.61,78,98,0.6
268,Cheyenne,US,2022-01-16 23:16:58,41.14,-104.8203,44.19,48,0,12.66
269,Payo,ID,2022-01-16 23:16:58,-3.7508,103.6372,71.82,98,99,2.04
270,Nikolayevsk-Na-Amure,RU,2022-01-16 23:16:58,53.1406,140.73,-0.87,96,100,3.85
271,Sola,VU,2022-01-16 23:16:59,-13.8833,167.55,82.47,74,50,5.48
272,Bitkine,TD,2022-01-16 23:16:59,11.9801,18.2138,67.41,22,22,8.37
273,Qujing,CN,2022-01-16 23:17:00,25.4833,103.7833,37.11,97,100,7.58
274,Raudeberg,NO,2022-01-16 23:18:00,61.9875,5.1352,33.19,81,100,5.99
275,Tiznit,MA,2022-01-16 23:18:00,29.5833,-9.5,53.49,33,35,7.16
276,Buin,CL,2022-01-16 23:18:01,-33.7333,-70.75,75.74,38,24,9.53
277,Lavrentiya,RU,2022-01-16 23:18:01,65.5833,-171.0,-14.87,94,80,8.93
278,Lazaro Cardenas,MX,2022-01-16 23:18:01,17.9583,-102.2,81.54,66,10,8.9
279,Deputatskiy,RU,2022-01-16 23:18:02,69.3,139.9,-35.0,98,20,4.45
280,Sabang,ID,2022-01-16 23:18:02,5.8933,95.3214,81.45,75,81,15.1
281,Roma,US,2022-01-16 23:13:53,43.2128,-75.4557,27.9,54,0,10.36
282,Carnarvon,AU,2022-01-16 23:18:02,-24.8667,113.6333,75.27,78,100,17.27
283,Estacion Coahuila,MX,2022-01-16 23:18:03,32.1939,-115.0017,77.97,14,90,7.85
284,Bulungu,CD,2022-01-16 23:18:03,-4.55,18.6,69.37,98,91,1.28
285,Gizo,SB,2022-01-16 23:18:03,-8.103,156.8419,82.67,75,97,4.74
286,Zarand,IR,2022-01-16 23:18:04,30.8127,56.564,45.09,71,7,20.02
287,Pisco,PE,2022-01-16 23:18:04,-13.7,-76.2167,75.25,78,0,21.85
288,Half Moon Bay,US,2022-01-16 23:18:04,37.4636,-122.4286,68.47,58,75,3.44
289,Kavaratti,IN,2022-01-16 23:18:05,10.5669,72.642,79.03,70,38,4.12
290,Mastic Beach,US,2022-01-16 23:18:06,40.7668,-72.8521,37.98,74,75,1.01
291,Latung,PH,2022-01-16 23:18:06,5.5,120.8833,80.89,74,100,6.24
292,Nemuro,JP,2022-01-16 23:18:07,43.3236,145.575,32.31,98,100,19.04
293,Susanville,US,2022-01-16 23:18:04,40.4163,-120.653,39.09,77,0,1.01
294,Port-Gentil,GA,2022-01-16 23:18:07,-0.7193,8.7815,78.26,84,95,8.99
295,Haines Junction,CA,2022-01-16 23:18:07,60.7522,-137.5108,30.15,74,100,5.75
296,Muramvya,BI,2022-01-16 23:18:08,-3.2682,29.6079,54.81,91,100,0.4
297,Cordoba,AR,2022-01-16 23:18:08,-31.4135,-64.1811,83.59,65,20,7.0
298,Leshukonskoye,RU,2022-01-16 23:18:09,64.8989,45.7622,14.81,93,100,10.8
299,Madison,US,2022-01-16 23:18:07,34.7334,-86.5667,35.28,93,100,1.01
300,Dhidhdhoo,MV,2022-01-16 23:18:09,6.8833,73.1,81.23,73,15,4.72
301,The Pas,CA,2022-01-16 23:15:15,53.8251,-101.2541,6.82,85,100,3.44
302,Jalu,LY,2022-01-16 23:18:09,29.0331,21.5482,50.92,83,41,4.92
303,Noyabrsk,RU,2022-01-16 23:18:10,63.1994,75.4507,15.6,94,100,19.91
304,Cody,US,2022-01-16 23:16:49,44.5263,-109.0565,45.64,40,0,10.36
305,Narsaq,GL,2022-01-16 23:18:10,60.9167,-46.05,35.82,89,100,8.86
306,Riyadh,SA,2022-01-16 23:18:11,24.6877,46.7219,53.74,30,0,5.1
307,Monteagudo,BO,2022-01-16 23:18:11,-19.8167,-63.9833,83.98,72,67,1.97
308,Denizli,TR,2022-01-16 23:18:11,37.8402,29.0698,27.45,58,0,1.45
309,Khartoum,SD,2022-01-16 23:18:12,15.5518,32.5324,68.02,21,0,16.44
310,Brownsville,US,2022-01-16 23:17:11,25.9018,-97.4975,66.15,28,0,1.01
311,Buchanan,LR,2022-01-16 23:18:12,5.8808,-10.0467,79.61,84,89,4.05
312,Wamba,NG,2022-01-16 23:18:12,8.9333,8.6,76.21,17,91,4.36
313,Vanimo,PG,2022-01-16 23:18:13,-2.6741,141.3028,79.88,86,93,3.2
314,Smithers,CA,2022-01-16 23:18:13,54.7804,-127.1743,32.32,100,100,2.3
315,Dabakala,CI,2022-01-16 23:18:13,8.3667,-4.4333,80.6,19,77,5.77
316,Izhma,RU,2022-01-16 23:18:14,65.0083,53.9113,-9.24,100,99,3.98
317,Antofagasta,CL,2022-01-16 23:17:40,-23.65,-70.4,72.21,49,5,6.02
318,Dublin,US,2022-01-16 23:15:21,37.7021,-121.9358,66.51,61,100,3.0
319,Nizwa,OM,2022-01-16 23:19:14,22.9333,57.5333,61.9,84,29,3.06
320,Palu,ID,2022-01-16 23:19:14,-0.8917,119.8707,74.84,90,100,2.15
321,Touros,BR,2022-01-16 23:17:06,-5.1989,-35.4608,81.5,75,62,12.53
322,Kavieng,PG,2022-01-16 23:19:15,-2.5744,150.7967,82.27,76,98,3.15
323,Ewa Beach,US,2022-01-16 23:17:25,21.3156,-158.0072,81.01,61,0,5.99
324,Eureka,US,2022-01-16 23:19:15,40.8021,-124.1637,55.13,80,46,4.0
325,Bousso,TD,2022-01-16 23:19:16,10.4795,16.7117,70.21,22,30,7.74
326,Belyy Yar,RU,2022-01-16 23:19:16,53.6039,91.3903,10.29,85,40,4.47
327,San Cristobal,VE,2022-01-16 23:19:16,7.7669,-72.225,73.58,64,38,1.77
328,Rabo De Peixe,PT,2022-01-16 23:19:17,37.8,-25.5833,56.71,91,20,21.85
329,Vagay,RU,2022-01-16 23:19:17,57.9375,69.0217,23.77,92,100,16.89
330,Buluang,PH,2022-01-16 23:19:18,13.3068,123.3425,70.93,88,100,4.94
331,Minggang,CN,2022-01-16 23:19:18,32.4586,114.0486,38.77,75,96,5.17
332,Salalah,OM,2022-01-16 23:19:18,17.0151,54.0924,71.69,73,20,1.14
333,San Isidro,PE,2022-01-16 23:19:19,-12.1167,-77.05,74.5,76,0,1.99
334,Ikongo,MG,2022-01-16 23:19:19,-21.8833,47.4333,69.1,99,74,1.28
335,Itarema,BR,2022-01-16 23:19:19,-2.9248,-39.9167,80.17,77,23,10.87
336,Mahajanga,MG,2022-01-16 23:19:20,-15.7167,46.3167,77.02,94,40,4.61
337,Flin Flon,CA,2022-01-16 23:19:20,54.7682,-101.865,4.84,78,100,5.75
338,Chabahar,IR,2022-01-16 23:19:21,25.2919,60.643,70.2,70,76,10.07
339,Saint-Augustin,CA,2022-01-16 23:19:21,51.226,-58.6502,-1.88,82,42,9.15
340,Kidal,ML,2022-01-16 23:19:22,18.4411,1.4078,61.23,19,62,13.02
341,Kaeo,NZ,2022-01-16 23:19:22,-35.1,173.7833,80.33,55,0,4.43
342,Bonavista,CA,2022-01-16 23:19:22,48.6499,-53.1147,23.11,70,100,23.8
343,Shimoda,JP,2022-01-16 23:19:23,34.6667,138.95,50.36,65,74,24.83
344,Mitsamiouli,KM,2022-01-16 23:19:23,-11.3847,43.2844,82.24,75,32,4.16
345,Malayal,PH,2022-01-16 23:19:23,7.208,121.942,80.4,85,100,5.99
346,Udachnyy,RU,2022-01-16 23:19:23,66.4167,112.4,-15.56,82,98,9.04
347,Leiva,CO,2022-01-16 23:19:24,1.9339,-77.3025,65.16,92,80,4.92
348,Barranca,PE,2022-01-16 23:19:24,-10.75,-77.7667,72.97,75,32,7.7
349,Sorland,NO,2022-01-16 23:19:24,67.667,12.6934,36.88,66,100,30.51
350,Sakaiminato,JP,2022-01-16 23:19:25,35.55,133.2333,40.98,65,75,13.8
351,Norden,DE,2022-01-16 23:19:25,53.6,7.2,43.95,80,91,22.82
352,Avera,US,2022-01-16 23:19:26,33.194,-82.5271,43.48,96,97,13.62
353,Andenes,NO,2022-01-16 23:19:26,69.3143,16.1194,31.98,64,20,19.57
354,Hailar,CN,2022-01-16 23:19:26,49.2,119.7,-28.97,100,33,2.15
355,Haradok,BY,2022-01-16 23:19:27,55.4624,29.9816,27.86,94,100,15.75
356,Porto Novo,BJ,2022-01-16 23:19:27,6.4965,2.6036,80.42,81,94,5.39
357,Faya,SA,2022-01-16 23:19:27,18.3851,42.4509,55.92,91,40,5.66
358,Valle De Allende,MX,2022-01-16 23:19:28,26.9333,-105.4,62.65,21,82,3.8
359,Kapoeta,SS,2022-01-16 23:19:28,4.7717,33.5903,84.49,37,87,5.39
360,Lima,PE,2022-01-16 23:17:06,-12.0432,-77.0282,73.38,75,0,1.99
361,Gondar,ET,2022-01-16 23:19:28,12.6,37.4667,59.61,49,52,3.85
362,Villaviciosa,ES,2022-01-16 23:20:29,43.4813,-5.4357,47.41,77,38,4.65
363,Agirish,RU,2022-01-16 23:20:29,61.9247,63.0231,-4.74,100,100,5.84
364,Akureyri,IS,2022-01-16 23:20:29,65.6835,-18.0878,21.13,93,100,5.75
365,Pocone,BR,2022-01-16 23:20:29,-16.2567,-56.6228,82.65,59,98,6.06
366,Kuching,MY,2022-01-16 23:17:39,1.55,110.3333,75.42,100,40,2.3
367,Prince Rupert,CA,2022-01-16 23:20:30,54.3161,-130.3201,44.69,93,100,6.91
368,Puerto Padre,CU,2022-01-16 23:20:30,21.195,-76.6028,81.61,65,25,4.9
369,Careiro Da Varzea,BR,2022-01-16 23:20:31,-3.2003,-59.8119,81.21,86,87,0.34
370,Henties Bay,NA,2022-01-16 23:20:31,-22.116,14.2845,67.86,86,87,6.42
371,Torbay,CA,2022-01-16 23:20:31,47.6666,-52.7314,22.75,71,75,19.57
372,Gogrial,SS,2022-01-16 23:20:32,8.5332,28.1004,86.09,34,92,5.77
373,Fairbanks,US,2022-01-16 23:20:02,64.8378,-147.7164,5.59,84,100,0.0
374,Waipawa,NZ,2022-01-16 23:20:32,-41.4122,175.5153,66.31,68,10,11.1
375,Mayor Pablo Lagerenza,PY,2022-01-16 23:20:32,-19.9309,-60.7718,94.78,30,6,13.24
376,Beltangadi,IN,2022-01-16 23:20:33,13.9833,75.3,66.54,80,94,6.42
377,Tabou,CI,2022-01-16 23:20:33,4.423,-7.3528,79.3,85,4,6.06
378,Victoria,HK,2022-01-16 23:16:11,22.2855,114.1577,64.45,84,76,1.99
379,Bonnyville,CA,2022-01-16 23:20:33,54.2668,-110.735,30.0,97,99,2.57
380,Pointe Michel,DM,2022-01-16 23:20:34,15.25,-61.3833,73.69,70,10,12.46
381,Devils Lake,US,2022-01-16 23:20:34,48.1128,-98.8651,26.71,90,100,4.61
382,Ojinaga,MX,2022-01-16 23:20:34,29.5667,-104.4167,64.42,18,0,0.0
383,Tarko-Sale,RU,2022-01-16 23:20:35,64.9225,77.785,12.02,94,100,17.52
384,Chodavaram,IN,2022-01-16 23:20:35,17.8333,82.95,71.44,89,15,3.11
385,Iquitos,PE,2022-01-16 23:20:35,-3.7481,-73.2472,84.24,74,40,3.44
386,Kralendijk,BQ,2022-01-16 23:17:19,12.15,-68.2667,80.58,78,75,13.8
387,Nara,JP,2022-01-16 23:20:36,34.6851,135.8049,45.68,58,98,4.83
388,Beirut,LB,2022-01-16 23:20:36,33.8889,35.4944,45.34,42,0,5.75
389,Ouesso,CG,2022-01-16 23:20:36,1.6136,16.0517,73.02,74,93,2.1
390,Iqaluit,CA,2022-01-16 23:20:37,63.7506,-68.5145,-25.87,74,75,2.3
391,Bridlington,GB,2022-01-16 23:20:37,54.0831,-0.1919,39.38,84,16,11.99
392,Namatanai,PG,2022-01-16 23:20:37,-3.6667,152.4333,82.85,73,100,3.06
393,Qasigiannguit,GL,2022-01-16 23:20:38,68.8193,-51.1922,3.45,78,100,4.63
394,Samarai,PG,2022-01-16 23:20:38,-10.6167,150.6667,82.83,73,76,8.01
395,Kalat,PK,2022-01-16 23:20:38,29.0225,66.5916,44.22,71,100,6.89
396,Quelimane,MZ,2022-01-16 23:20:39,-17.8786,36.8883,78.75,100,75,3.44
397,San Angelo,US,2022-01-16 23:19:27,31.4638,-100.437,71.82,10,0,3.0
398,Qui Nhon,VN,2022-01-16 23:20:39,13.7667,109.2333,70.38,91,81,7.99
399,Mangit,UZ,2022-01-16 23:20:39,40.5971,70.9607,42.08,41,99,2.62
400,Hobyo,SO,2022-01-16 23:20:40,5.3505,48.5268,76.84,75,99,14.03
401,Sinazongwe,ZM,2022-01-16 23:20:40,-17.2614,27.4618,76.69,71,98,3.11
402,Palmerston,AU,2022-01-16 23:20:40,-12.486,130.9833,82.38,90,75,2.3
403,Karatau,KZ,2022-01-16 23:20:41,43.1667,70.4667,38.97,97,100,8.03
404,Isiro,CD,2022-01-16 23:20:41,2.7739,27.616,66.34,99,100,0.96
405,San Patricio,US,2022-01-16 23:20:41,28.017,-97.5169,69.78,16,0,5.84
406,Rovereto,IT,2022-01-16 23:20:42,45.8896,11.0387,44.37,65,35,4.32
407,Zihuatanejo,MX,2022-01-16 23:20:42,17.6333,-101.55,86.09,66,40,9.22
408,San Andres,CO,2022-01-16 23:16:15,12.5847,-81.7006,80.62,69,75,8.05
409,Cairns,AU,2022-01-16 23:20:42,-16.9167,145.7667,89.11,76,65,2.3
410,Colac,AU,2022-01-16 23:20:43,-38.3333,143.5833,68.02,56,100,8.41
411,Bayir,TR,2022-01-16 23:21:43,37.2687,28.2167,36.12,56,0,3.76
412,Olinda,BR,2022-01-16 23:21:43,-8.0089,-34.8553,80.33,83,40,12.66
413,Tagusao,PH,2022-01-16 23:21:44,9.1924,117.8141,77.27,81,99,5.88
414,Korhogo,CI,2022-01-16 23:21:44,9.45,-5.6333,75.56,22,97,5.55
415,Conde,BR,2022-01-16 23:21:44,-7.2597,-34.9075,80.06,83,20,9.22
416,Klobuck,PL,2022-01-16 23:21:45,50.9008,18.9367,33.26,97,100,16.98
417,Novonikolayevskiy,RU,2022-01-16 23:21:45,50.9738,42.3649,18.79,88,95,6.35
418,Ejido,VE,2022-01-16 23:21:45,8.5514,-71.2375,68.52,90,76,2.26
419,Pali,IN,2022-01-16 23:21:45,25.7667,73.3333,54.39,51,1,7.63
420,Puri,IN,2022-01-16 23:21:46,19.8,85.85,64.92,70,0,8.59
421,Macusani,PE,2022-01-16 23:21:46,-14.0833,-70.4333,40.05,84,80,3.71
422,Ahipara,NZ,2022-01-16 23:21:46,-35.1667,173.1667,73.11,60,1,11.77
423,Ust-Nera,RU,2022-01-16 23:21:47,64.5667,143.2,-34.58,91,16,1.07
424,Wodonga,AU,2022-01-16 23:21:47,-36.1167,146.8833,80.28,94,40,3.44
425,Karpathos,GR,2022-01-16 23:21:48,35.507,27.2132,46.36,49,5,6.91
426,Vao,NC,2022-01-16 23:21:48,-22.6667,167.4833,76.12,75,27,17.47
427,Gamba,GA,2022-01-16 23:21:48,-2.65,10.0,75.45,91,94,5.17
428,Nizhniy Odes,RU,2022-01-16 23:21:49,63.6445,54.856,-8.99,100,94,2.59
429,Liverpool,GB,2022-01-16 23:21:49,53.4106,-2.9779,45.72,82,75,3.0
430,Fayaoue,NC,2022-01-16 23:21:50,-20.65,166.5333,79.27,68,2,12.3
431,Bengkulu,ID,2022-01-16 23:21:50,-3.8004,102.2655,74.73,89,66,4.27
432,Ust-Omchug,RU,2022-01-16 23:21:50,61.15,149.6333,-35.63,98,41,2.46
433,Raga,SS,2022-01-16 23:21:50,8.4596,25.678,81.68,47,100,0.49
434,Nguruka,TZ,2022-01-16 23:21:51,-5.1092,31.0419,63.41,95,100,2.46
435,Dwarka,IN,2022-01-16 23:21:51,22.2394,68.9678,68.14,60,1,14.23
436,Port Blair,IN,2022-01-16 23:21:51,11.6667,92.75,78.04,71,68,10.16
437,Seoul,KR,2022-01-16 23:18:42,37.5683,126.9778,17.04,76,0,1.14
438,Karwar,IN,2022-01-16 23:21:52,14.8,74.1333,73.31,67,86,4.85
439,Akhtanizovskaya,RU,2022-01-16 23:21:52,45.32,37.1,34.27,72,96,11.88
440,Pinheiro Machado,BR,2022-01-16 23:21:52,-31.5783,-53.3811,73.87,85,66,13.96
441,Cayenne,GF,2022-01-16 23:21:53,4.9333,-52.3333,80.1,84,20,7.0
442,Porbandar,IN,2022-01-16 23:21:53,21.6422,69.6093,66.81,52,1,12.33
443,Teahupoo,PF,2022-01-16 23:21:53,-17.8333,-149.2667,78.76,79,100,17.56
444,Asau,RO,2022-01-16 23:21:54,46.4333,26.4,24.28,60,100,7.63
445,Sipoo,FI,2022-01-16 23:21:54,60.3775,25.2691,31.87,94,20,9.22
446,Skjervoy,NO,2022-01-16 23:21:54,70.0311,20.9714,29.05,74,100,29.1
447,Derendingen,CH,2022-01-16 23:21:55,47.1985,7.5884,33.48,95,75,3.44
448,Beringovskiy,RU,2022-01-16 23:21:55,63.05,179.3167,-14.13,87,23,18.7
449,Tessalit,ML,2022-01-16 23:21:55,20.1986,1.0114,58.82,21,38,11.56
450,Labytnangi,RU,2022-01-16 23:21:55,66.6572,66.4183,-16.11,100,83,2.8
451,Tynda,RU,2022-01-16 23:21:56,55.1667,124.7167,-32.46,98,25,2.62
452,Adrar,MR,2022-01-16 23:21:56,20.5022,-10.0711,63.5,16,100,19.1
453,Maun,BW,2022-01-16 23:21:56,-19.9833,23.4167,69.76,100,0,6.91
454,Lasa,IT,2022-01-16 23:21:56,46.6166,10.7002,38.28,85,23,6.8
455,Grindavik,IS,2022-01-16 23:21:57,63.8424,-22.4338,43.27,100,100,26.46
456,Ambanja,MG,2022-01-16 23:21:57,-13.6833,48.45,76.1,92,100,2.8
457,Villazon,BO,2022-01-16 23:21:57,-22.0866,-65.5942,54.1,62,87,8.93
458,Hermosillo,MX,2022-01-16 23:22:57,29.0667,-110.9667,84.11,16,20,3.0
459,Acari,PE,2022-01-16 23:22:58,-15.4311,-74.6158,74.91,81,90,7.65
460,Mahibadhoo,MV,2022-01-16 23:22:58,3.7833,72.9667,81.9,76,100,12.71
461,Krasnoselkup,RU,2022-01-16 23:22:58,65.7,82.4667,9.81,91,100,16.91
462,Mangai,CD,2022-01-16 23:22:59,-4.05,19.5333,69.91,99,100,2.89
463,Dunedin,NZ,2022-01-16 23:22:59,-45.8742,170.5036,69.8,71,100,5.01
464,Rivadavia,AR,2022-01-16 23:20:42,-33.1905,-68.4608,86.47,17,0,14.43
465,Mecca,SA,2022-01-16 23:21:22,21.4267,39.8261,62.22,57,1,6.96
466,Vilyuysk,RU,2022-01-16 23:22:59,63.7553,121.6247,-47.06,100,63,2.13
467,Itaituba,BR,2022-01-16 23:23:00,-4.2761,-55.9836,82.56,74,40,9.22
468,Moyale,KE,2022-01-16 23:23:00,3.5167,39.0584,74.32,49,81,3.13
469,Port Hedland,AU,2022-01-16 23:23:00,-20.3167,118.5667,82.45,78,100,14.97
470,Karaton,ID,2022-01-16 23:23:01,-6.3424,106.1045,75.36,94,36,1.97
471,Hirado,JP,2022-01-16 23:23:01,33.3597,129.5531,44.38,59,100,11.43
472,Sunrise Manor,US,2022-01-16 23:23:02,36.2111,-115.0731,65.25,19,0,3.44
473,Sulphur,US,2022-01-16 23:23:02,30.2366,-93.3774,53.58,49,0,4.61
474,Kalabo,ZM,2022-01-16 23:23:02,-14.97,22.6814,70.9,48,69,4.14
475,Carahue,CL,2022-01-16 23:23:03,-38.7,-73.1667,55.6,50,47,7.87
476,Homer,US,2022-01-16 23:22:09,59.6425,-151.5483,29.05,74,0,0.0
477,Tam Ky,VN,2022-01-16 23:23:03,15.5667,108.4833,71.58,93,68,3.58
478,Wajir,KE,2022-01-16 23:23:03,1.7471,40.0573,80.69,60,26,13.87
479,Nabire,ID,2022-01-16 23:23:04,-3.3667,135.4833,77.81,89,100,1.59
480,Mlonggo,ID,2022-01-16 23:23:04,-6.5333,110.7,72.52,87,100,5.41
481,Parrita,CR,2022-01-16 23:23:04,9.5201,-84.3225,85.77,74,30,4.07
482,El Retorno,CO,2022-01-16 23:23:04,2.3302,-72.6276,77.68,76,99,3.65
483,Dossor,KZ,2022-01-16 23:23:05,47.5272,52.9811,27.88,86,97,15.1
484,Thessalon,CA,2022-01-16 23:23:05,46.2501,-83.5666,25.29,83,100,5.68
485,Padang,ID,2022-01-16 23:23:06,-0.9492,100.3543,76.68,86,60,4.14
486,Meridian,US,2022-01-16 23:21:37,43.6121,-116.3915,38.32,73,20,1.99
487,Kutum,SD,2022-01-16 23:23:06,14.2,24.6667,59.79,28,2,8.61
488,Dillon,US,2022-01-16 23:23:06,34.4166,-79.3712,46.29,94,81,9.98
489,Asyut,EG,2022-01-16 23:23:07,27.181,31.1837,48.38,55,100,11.23
490,Opelousas,US,2022-01-16 23:23:07,30.5335,-92.0815,51.82,50,0,6.91
491,Vallenar,CL,2022-01-16 23:23:07,-28.5708,-70.7581,74.75,52,0,6.73
492,Morgan City,US,2022-01-16 23:23:07,29.6994,-91.2068,48.99,61,0,8.05
493,Olafsvik,IS,2022-01-16 23:23:08,64.8945,-23.7142,43.29,95,100,24.9
494,Ladybrand,ZA,2022-01-16 23:23:08,-29.1945,27.4574,62.53,86,53,3.2
495,Rawson,AR,2022-01-16 23:23:08,-43.3002,-65.1023,65.39,23,18,11.7
496,Goundam,ML,2022-01-16 23:23:09,16.4145,-3.6708,62.91,17,63,9.51
497,Otradnoye,RU,2022-01-16 23:23:09,59.7775,30.8181,35.04,98,100,13.2
498,Sur,OM,2022-01-16 23:23:09,22.5667,59.5289,69.58,77,0,11.97
499,Chengde,CN,2022-01-16 23:23:09,40.9725,117.9361,12.85,56,0,4.52
500,Blagoyevo,RU,2022-01-16 23:23:10,63.3667,47.9167,9.68,92,90,9.1
501,Nsanje,MW,2022-01-16 23:23:10,-16.92,35.262,72.48,93,100,2.13
502,Caravelas,BR,2022-01-16 23:23:10,-17.7125,-39.2481,77.02,84,1,7.4
503,Chopovychi,UA,2022-01-16 23:24:11,50.8332,28.9533,28.96,79,83,13.67
504,Ust-Karsk,RU,2022-01-16 23:24:11,52.7011,118.8077,-29.63,100,73,1.39
505,Verkhoyansk,RU,2022-01-16 23:24:12,67.5447,133.385,-45.09,100,83,1.05
506,Saint-Francois,FR,2022-01-16 23:24:12,46.4154,3.9054,27.68,100,100,1.14
507,Klaksvik,FO,2022-01-16 23:24:12,62.2266,-6.589,36.52,89,100,11.68
508,Jaggayyapeta,IN,2022-01-16 23:24:13,16.9,80.1,69.58,88,92,5.26
509,Karratha,AU,2022-01-16 23:24:13,-20.7377,116.8463,81.16,54,11,17.16
510,Marica,BR,2022-01-16 23:24:13,-22.9194,-42.8186,78.96,91,59,10.58
511,Besuki,ID,2022-01-16 23:24:14,-7.7338,113.6979,78.28,89,100,6.46
512,Nador,MA,2022-01-16 23:24:14,35.174,-2.9287,52.05,76,20,0.0
513,Andapa,MG,2022-01-16 23:24:14,-14.65,49.65,68.5,96,100,3.13
514,Araure,VE,2022-01-16 23:24:15,9.5601,-69.2148,83.43,52,92,2.42
515,Sesheke,ZM,2022-01-16 23:24:15,-17.4759,24.2968,66.52,54,85,1.72
516,Sitka,US,2022-01-16 23:24:15,57.0531,-135.33,39.09,87,100,0.0
517,Senneterre,CA,2022-01-16 23:24:16,48.3835,-77.2328,3.42,81,100,10.45
518,Gobabis,NA,2022-01-16 23:24:16,-22.45,18.9667,74.03,55,86,10.89
519,Buala,SB,2022-01-16 23:24:16,-8.145,159.5921,84.56,71,95,3.58
520,Vanavara,RU,2022-01-16 23:24:17,60.34,102.2797,-13.74,100,47,3.4
521,Alice Springs,AU,2022-01-16 23:21:02,-23.7,133.8833,74.75,78,100,12.66
522,Verkhnyaya Inta,RU,2022-01-16 23:24:17,65.9811,60.3094,-10.23,100,98,3.09
523,Egvekinot,RU,2022-01-16 23:24:18,66.3167,-179.1667,-16.44,87,8,10.83
524,Cacu,BR,2022-01-16 23:24:18,-18.5567,-51.1308,75.54,65,78,6.49
525,Agadir,MA,2022-01-16 23:24:18,30.4202,-9.5982,52.25,45,4,6.06
526,Seddon,AU,2022-01-16 23:24:19,-37.8068,144.8916,69.26,75,100,10.36
527,Athens,GR,2022-01-16 23:22:49,37.9795,23.7162,44.38,76,0,3.0
528,Berlevag,NO,2022-01-16 23:24:19,70.8578,29.0864,26.55,59,75,20.71
529,Broome,US,2022-01-16 23:24:19,42.2506,-75.833,25.7,65,100,1.99
530,Northam,GB,2022-01-16 23:24:20,51.0333,-4.2167,42.3,82,13,7.11
531,Sambava,MG,2022-01-16 23:24:20,-14.2667,50.1667,74.43,83,89,4.34
532,Bandarbeyla,SO,2022-01-16 23:24:20,9.4942,50.8122,75.04,67,86,11.81
533,Leon,MX,2022-01-16 23:24:21,21.1167,-101.6667,72.82,28,100,4.97
534,Ileza,RU,2022-01-16 23:24:21,61.0533,43.9002,20.68,94,100,9.69
535,Ouegoa,NC,2022-01-16 23:24:21,-20.35,164.4333,81.86,71,87,11.01
536,Vostok,RU,2022-01-16 23:24:22,46.4856,135.8833,-2.65,99,100,2.42
537,Guaymas,MX,2022-01-16 23:24:22,27.9333,-110.9,83.44,56,0,11.5
538,Valleyview,CA,2022-01-16 23:24:22,55.0667,-117.2859,31.15,99,100,3.29
539,Shache,CN,2022-01-16 23:24:22,38.4167,77.2406,24.44,51,3,3.49
540,Biak,ID,2022-01-16 23:24:23,-0.9131,122.8766,75.97,84,98,1.16
541,Talara,PE,2022-01-16 23:24:23,-4.5772,-81.2719,72.18,84,32,13.56
542,Vigrestad,NO,2022-01-16 23:24:23,58.5667,5.7,38.88,97,100,23.94
543,Necochea,AR,2022-01-16 23:21:25,-38.5473,-58.7368,65.03,74,93,20.94
544,Brewster,US,2022-01-16 23:20:49,41.3973,-73.6171,32.74,80,75,1.01
545,Tamazunchale,MX,2022-01-16 23:24:24,21.2667,-98.7833,62.85,43,34,3.87
546,Banda Aceh,ID,2022-01-16 23:24:24,5.5577,95.3222,76.91,86,57,8.84
547,Zhicheng,CN,2022-01-16 23:24:25,30.2956,111.5047,44.58,62,100,1.99
548,Port Macquarie,AU,2022-01-16 23:24:25,-31.4333,152.9167,81.9,74,31,6.46
549,Kalmunai,LK,2022-01-16 23:24:26,7.4167,81.8167,76.35,85,44,5.3
550,Iranshahr,IR,2022-01-16 23:24:26,27.2025,60.6848,60.58,74,84,7.81
551,Bara,NG,2022-01-16 23:24:26,10.3744,10.7288,68.16,19,89,9.19
552,Dawei,MM,2022-01-16 23:25:27,14.0833,98.2,67.55,84,93,3.6
553,College,US,2022-01-16 23:25:27,64.8569,-147.8028,5.58,85,75,0.0
554,Strelka,RU,2022-01-16 23:25:28,58.0728,93.0344,6.66,98,100,5.21
555,Ginda,IN,2022-01-16 23:25:28,30.6945,78.4932,43.68,38,93,6.69
556,Peniche,PT,2022-01-16 23:24:56,39.3558,-9.3811,53.1,83,59,8.5
557,Deggendorf,DE,2022-01-16 23:25:28,48.8333,12.9667,36.99,80,100,8.88
558,Zhigansk,RU,2022-01-16 23:25:29,66.7697,123.3711,-49.68,100,66,4.99
559,Albanel,CA,2022-01-16 23:25:29,48.8832,-72.4487,6.94,66,94,10.36
560,Floro,NO,2022-01-16 23:25:30,61.5996,5.0328,33.22,74,75,29.93
561,Hargeysa,SO,2022-01-16 23:25:30,9.56,44.065,61.29,91,88,5.86
562,Key West,US,2022-01-16 23:25:30,24.5557,-81.7826,73.4,67,100,17.27
563,Kalachinsk,RU,2022-01-16 23:25:31,55.0529,74.5751,22.42,83,100,22.82
564,Itaqui,BR,2022-01-16 23:25:31,-29.1253,-56.5531,96.01,28,82,9.28
565,Madera,US,2022-01-16 23:21:23,37.1666,-119.8343,66.24,59,92,1.01
566,Olden,NO,2022-01-16 23:25:32,61.8364,6.8064,33.26,96,100,11.16
567,Ocos,GT,2022-01-16 23:25:33,14.5094,-92.1933,88.3,64,1,7.2
568,Novozybkov,RU,2022-01-16 23:25:33,52.5396,31.9275,28.13,90,70,12.77
569,Neuquen,AR,2022-01-16 23:25:33,-38.9516,-68.0591,71.49,24,0,4.61
570,Kagalnitskaya,RU,2022-01-16 23:25:34,46.8806,40.1466,30.83,91,48,5.1
571,Chapleau,CA,2022-01-16 23:25:34,47.8405,-83.4034,17.69,79,100,6.91
572,Luvianos,MX,2022-01-16 23:25:34,18.9167,-100.4,73.74,41,12,4.83
573,Pangoa,PE,2022-01-16 23:25:35,-12.1167,-73.0,77.16,71,42,1.16
574,Khash,IR,2022-01-16 23:25:35,28.2211,61.2158,50.07,86,86,9.1
575,Lancaster,US,2022-01-16 23:25:06,40.2504,-76.2499,25.52,86,100,3.0
576,Empangeni,ZA,2022-01-16 23:25:36,-28.762,31.8933,71.42,91,100,3.89
577,Jining,CN,2022-01-16 23:25:36,35.405,116.5814,31.03,71,2,3.18
578,Marigot,MF,2022-01-16 23:25:36,18.0667,-63.0833,78.58,75,20,10.36
579,Poronaysk,RU,2022-01-16 23:25:37,49.2167,143.1167,7.95,95,95,6.71
580,Poya,NC,2022-01-16 23:25:37,-21.35,165.15,82.89,62,52,4.0
581,Thinadhoo,MV,2022-01-16 23:25:37,0.5333,72.9333,81.14,69,100,0.36
582,Cayeli,TR,2022-01-16 23:25:38,41.0923,40.7292,36.99,88,100,4.88
583,Aksu,CN,2022-01-16 23:25:38,41.1231,80.2644,23.92,60,3,3.13
584,Jinxiang,CN,2022-01-16 23:25:38,27.4327,120.6062,47.93,92,100,11.81
585,Padilla,CO,2022-01-16 23:25:39,3.2204,-76.3139,78.37,84,79,0.85
586,Bryanka,UA,2022-01-16 23:25:39,48.511,38.6722,18.59,95,43,6.89
587,Prieska,ZA,2022-01-16 23:25:40,-29.6641,22.7474,81.84,46,71,9.73
588,Kirakira,SB,2022-01-16 23:25:40,-10.4544,161.9205,85.14,75,73,6.96
