City_ID,City,Country,Date,Lat,Lng,Max Temp,Humidity,Cloudiness,Wind Speed
<<<<<<< HEAD
0,Barrow,US,2022-01-16 23:50:02,71.2906,-156.7887,-16.58,69,100,0.0
1,Rikitea,PF,2022-01-16 23:49:19,-23.1203,-134.9692,77.43,71,32,7.4
2,Batabano,CU,2022-01-16 23:53:11,22.7164,-82.2881,69.73,81,81,16.44
3,Kastamonu,TR,2022-01-16 23:53:12,41.5,33.6667,15.75,97,89,3.47
4,Ribeira Grande,PT,2022-01-16 23:53:12,38.5167,-28.7,56.95,62,36,17.47
5,Nantucket,US,2022-01-16 23:52:04,41.2835,-70.0995,34.14,66,75,17.27
6,La Asuncion,VE,2022-01-16 23:53:13,11.0333,-63.8628,80.33,83,43,14.97
7,Cedar City,US,2022-01-16 23:53:13,37.6775,-113.0619,42.4,53,88,1.23
8,Punta Arenas,CL,2022-01-16 23:48:47,-53.15,-70.9167,48.31,46,0,19.57
9,Lata,PT,2022-01-16 23:53:13,40.1629,-8.3327,49.06,88,85,3.53
10,Emerald,AU,2022-01-16 23:53:14,-23.5333,148.1667,86.14,62,28,12.66
11,Busselton,AU,2022-01-16 23:53:14,-33.65,115.3333,65.05,55,1,13.49
12,Murray Bridge,AU,2022-01-16 23:53:14,-35.1167,139.2667,73.45,52,100,10.85
13,Necochea,AR,2022-01-16 23:53:15,-38.5473,-58.7368,65.03,71,81,23.96
14,Saint-Augustin,CA,2022-01-16 23:53:15,51.226,-58.6502,-4.56,86,33,6.44
15,Saint-Philippe,RE,2022-01-16 23:53:15,-21.3585,55.7679,77.22,84,97,4.38
16,Ushuaia,AR,2022-01-16 23:53:16,-54.8,-68.3,38.86,75,75,13.8
17,Port Alfred,ZA,2022-01-16 23:53:16,-33.5906,26.891,71.08,93,99,13.71
18,Nikolskoye,RU,2022-01-16 23:53:16,59.7035,30.7861,34.88,96,100,10.67
19,Matamoros,MX,2022-01-16 23:50:00,25.5333,-103.25,60.12,20,57,4.45
20,Jacqueville,CI,2022-01-16 23:53:17,5.2052,-4.4146,80.51,87,54,6.13
21,Bredasdorp,ZA,2022-01-16 23:53:17,-34.5322,20.0403,60.12,82,29,5.75
22,Mataura,NZ,2022-01-16 23:53:18,-46.1927,168.8643,71.82,41,97,3.47
23,Salalah,OM,2022-01-16 23:53:18,17.0151,54.0924,70.52,74,81,3.47
24,Ilulissat,GL,2022-01-16 23:53:19,69.2167,-51.1,-10.64,78,100,4.45
25,Yellowknife,CA,2022-01-16 23:53:01,62.456,-114.3525,-11.58,79,100,8.05
26,Torbay,CA,2022-01-16 23:53:19,47.6666,-52.7314,22.75,71,75,19.57
27,Albany,US,2022-01-16 23:50:51,42.6001,-73.9662,25.09,56,87,7.58
28,Norman Wells,CA,2022-01-16 23:53:20,65.282,-126.8329,-29.16,68,20,2.3
29,Kapaa,US,2022-01-16 23:53:20,22.0752,-159.319,76.12,59,20,5.08
30,Hermanus,ZA,2022-01-16 23:53:21,-34.4187,19.2345,65.89,91,22,3.27
31,Horsham,GB,2022-01-16 23:53:21,51.064,-0.3272,44.64,90,20,5.75
32,Hasaki,JP,2022-01-16 23:53:21,35.7333,140.8333,36.0,56,97,7.23
33,Vaini,TO,2022-01-16 23:53:22,-21.2,-175.2,80.4,82,17,16.42
34,Butaritari,KI,2022-01-16 23:53:22,3.0707,172.7902,82.26,78,23,17.02
35,Hilo,US,2022-01-16 23:53:22,19.7297,-155.09,78.24,90,15,1.99
36,Aksarka,RU,2022-01-16 23:53:23,66.5606,67.7975,-17.57,100,88,1.16
37,Richards Bay,ZA,2022-01-16 23:53:23,-28.783,32.0377,73.58,88,100,6.93
38,Hobart,AU,2022-01-16 23:53:24,-42.8794,147.3294,75.25,52,20,4.0
39,Puerto Ayora,EC,2022-01-16 23:53:24,-0.7393,-90.3518,73.53,84,91,8.79
40,Beidao,CN,2022-01-16 23:53:24,34.5686,105.8933,33.66,49,0,3.06
41,Berlevag,NO,2022-01-16 23:53:25,70.8578,29.0864,25.92,64,100,23.11
42,Hualmay,PE,2022-01-16 23:53:25,-11.0964,-77.6139,72.91,78,59,9.35
43,Jamestown,US,2022-01-16 23:53:25,42.097,-79.2353,23.72,52,100,5.99
44,Cape Town,ZA,2022-01-16 23:49:04,-33.9258,18.4232,67.08,72,0,1.01
45,Impfondo,CG,2022-01-16 23:53:26,1.6381,18.0667,72.79,80,91,0.76
46,Atuona,PF,2022-01-16 23:52:21,-9.8,-139.0333,78.3,78,90,20.36
47,Upernavik,GL,2022-01-16 23:54:26,72.7868,-56.1549,-17.84,99,4,7.14
48,Ixtapa,MX,2022-01-16 23:54:27,20.7,-105.2,76.23,86,100,4.0
49,Chokurdakh,RU,2022-01-16 23:54:27,70.6333,147.9167,-41.89,99,82,6.2
50,Sobolevo,RU,2022-01-16 23:54:27,54.4299,31.8996,25.77,91,87,16.04
51,Cherskiy,RU,2022-01-16 23:54:28,68.75,161.3,-37.59,100,13,4.79
52,El Alto,PE,2022-01-16 23:54:28,-4.2714,-81.2147,69.4,83,60,16.51
53,Fortuna,US,2022-01-16 23:54:28,40.5982,-124.1573,54.43,94,40,5.75
54,Ust-Kuyga,RU,2022-01-16 23:54:28,70.0167,135.6,-42.7,100,99,5.84
55,Tazovskiy,RU,2022-01-16 23:54:29,67.4667,78.7,9.37,94,100,12.8
56,Kavieng,PG,2022-01-16 23:54:29,-2.5744,150.7967,82.36,75,98,1.9
57,Saskylakh,RU,2022-01-16 23:54:29,71.9167,114.0833,-23.55,93,11,13.91
58,Bambous Virieux,MU,2022-01-16 23:54:30,-20.3428,57.7575,78.22,88,40,3.44
59,Sao Paulo De Olivenca,BR,2022-01-16 23:54:30,-3.3783,-68.8725,74.35,97,88,0.43
60,Longyearbyen,SJ,2022-01-16 23:54:30,78.2186,15.6401,6.64,72,75,4.61
61,Avera,US,2022-01-16 23:54:31,33.194,-82.5271,39.88,96,97,13.38
62,Provideniya,RU,2022-01-16 23:54:31,64.3833,-173.3,3.31,60,0,8.95
63,Fukue,JP,2022-01-16 23:54:31,32.6881,128.8419,43.16,65,75,11.5
64,Brownsville,US,2022-01-16 23:54:32,25.9018,-97.4975,63.09,32,0,2.46
65,Constitucion,CL,2022-01-16 23:54:32,-35.3333,-72.4167,58.55,85,59,12.33
66,Hambantota,LK,2022-01-16 23:54:32,6.1241,81.1185,75.79,84,62,14.52
67,Waingapu,ID,2022-01-16 23:54:33,-9.6567,120.2641,82.72,77,93,11.39
68,Lasa,IT,2022-01-16 23:54:33,46.6166,10.7002,38.28,86,24,6.78
69,Esperance,AU,2022-01-16 23:54:34,-33.8667,121.9,67.84,59,34,15.08
70,Qaanaaq,GL,2022-01-16 23:54:34,77.484,-69.3632,-7.49,61,0,6.11
71,Umm Lajj,SA,2022-01-16 23:54:35,25.0213,37.2685,60.3,44,0,4.14
72,Sept-Iles,CA,2022-01-16 23:52:27,50.2001,-66.3821,10.83,59,75,8.99
73,Avarua,CK,2022-01-16 23:54:35,-21.2078,-159.775,82.45,83,75,29.93
74,Henties Bay,NA,2022-01-16 23:54:36,-22.116,14.2845,67.86,89,89,6.8
75,Severnyy,RU,2022-01-16 23:54:36,50.677,36.5532,26.64,74,75,6.71
76,Ambilobe,MG,2022-01-16 23:54:36,-13.2,49.05,76.03,94,98,2.33
77,Jumla,NP,2022-01-16 23:54:37,29.2747,82.1838,35.89,35,76,4.59
78,Mar Del Plata,AR,2022-01-16 23:54:37,-38.0023,-57.5575,73.42,82,100,3.0
79,Nome,US,2022-01-16 23:54:37,64.5011,-165.4064,1.94,97,100,3.65
80,Usinsk,RU,2022-01-16 23:54:38,65.9939,57.5281,-13.47,100,92,4.81
81,Port Moresby,PG,2022-01-16 23:54:38,-9.4431,147.1797,83.62,74,20,5.75
82,Ossora,RU,2022-01-16 23:54:39,59.2353,163.0719,-9.53,91,17,5.26
83,Salinas,US,2022-01-16 23:54:39,36.6777,-121.6555,68.49,78,67,2.59
84,Victoria,HK,2022-01-16 23:51:14,22.2855,114.1577,65.25,83,76,4.0
85,Nelson Bay,AU,2022-01-16 23:54:39,-32.7167,152.15,84.29,74,47,1.99
86,Puerto Asis,CO,2022-01-16 23:54:40,0.5133,-76.5007,75.45,85,87,3.36
87,New Norfolk,AU,2022-01-16 23:54:40,-42.7826,147.0587,75.7,39,9,7.0
88,Arraial Do Cabo,BR,2022-01-16 23:54:40,-22.9661,-42.0278,76.96,78,0,14.97
89,Lebu,CL,2022-01-16 23:54:41,-37.6167,-73.65,56.26,59,67,13.4
90,Dhulian,IN,2022-01-16 23:54:41,24.6833,87.9667,52.09,46,0,6.26
91,Camopi,GF,2022-01-16 23:54:42,3.1655,-52.3158,72.52,99,100,1.88
92,Dunedin,NZ,2022-01-16 23:54:42,-45.8742,170.5036,69.8,71,96,7.0
93,Fare,PF,2022-01-16 23:55:42,-16.7,-151.0167,80.83,74,97,15.37
94,Tiksi,RU,2022-01-16 23:55:43,71.6872,128.8694,-24.84,98,41,6.4
95,Prince Rupert,CA,2022-01-16 23:55:43,54.3161,-130.3201,44.69,93,100,6.91
96,Mareeba,AU,2022-01-16 23:55:44,-17.0,145.4333,85.44,82,63,2.84
97,Anadyr,RU,2022-01-16 23:55:44,64.75,177.4833,-21.5,76,0,4.47
98,Phan Thiet,VN,2022-01-16 23:55:44,10.9333,108.1,71.94,79,35,5.91
99,Vardo,NO,2022-01-16 23:55:45,70.3705,31.1107,23.2,60,100,29.39
100,Kodiak,US,2022-01-16 23:55:45,57.79,-152.4072,29.7,67,63,4.23
101,Zhanaozen,KZ,2022-01-16 23:55:45,43.3,52.8,28.89,78,99,3.4
102,Nador,MA,2022-01-16 23:52:02,35.174,-2.9287,52.05,76,40,0.0
103,Guerrero Negro,MX,2022-01-16 23:55:46,27.9769,-114.0611,68.16,42,67,12.46
104,Bandarbeyla,SO,2022-01-16 23:55:46,9.4942,50.8122,74.73,67,86,11.39
105,Cabo San Lucas,MX,2022-01-16 23:53:26,22.8909,-109.9124,80.62,77,100,1.99
106,Airai,TL,2022-01-16 23:55:47,-8.9266,125.4092,68.0,75,100,2.68
107,Oranjemund,NA,2022-01-16 23:55:47,-28.55,16.4333,67.6,87,3,7.25
108,Verkhoturye,RU,2022-01-16 23:55:48,58.8627,60.8054,-1.16,98,100,3.22
109,Samarai,PG,2022-01-16 23:55:48,-10.6167,150.6667,83.8,70,84,6.08
110,Jalu,LY,2022-01-16 23:55:48,29.0331,21.5482,50.45,84,34,6.17
111,Tasiilaq,GL,2022-01-16 23:55:49,65.6145,-37.6368,17.06,95,100,12.15
112,Mahebourg,MU,2022-01-16 23:55:49,-20.4081,57.7,78.26,88,40,3.44
113,Dabhol,IN,2022-01-16 23:55:50,17.6,73.1667,69.78,53,14,5.28
114,Carnarvon,AU,2022-01-16 23:55:50,-24.8667,113.6333,75.27,78,75,17.27
115,Georgiyevka,KZ,2022-01-16 23:55:50,43.0369,74.7114,32.04,100,75,4.47
116,Sambava,MG,2022-01-16 23:55:51,-14.2667,50.1667,73.85,82,76,4.09
117,Lavrentiya,RU,2022-01-16 23:55:51,65.5833,-171.0,-14.6,93,51,9.1
118,Porto Novo,BJ,2022-01-16 23:55:52,6.4965,2.6036,80.42,84,72,5.57
119,Hay River,CA,2022-01-16 23:55:52,60.8156,-115.7999,-7.62,77,100,6.91
120,Ponta Do Sol,PT,2022-01-16 23:55:53,32.6667,-17.1,65.03,71,87,18.7
121,Coihaique,CL,2022-01-16 23:54:02,-45.5752,-72.0662,52.41,46,20,6.91
122,Buchanan,LR,2022-01-16 23:55:53,5.8808,-10.0467,76.96,84,70,1.07
123,Namibe,AO,2022-01-16 23:55:53,-15.1961,12.1522,67.71,80,36,4.03
124,Margate,GB,2022-01-16 23:55:54,51.3813,1.3862,44.31,91,77,1.99
125,Port Elizabeth,ZA,2022-01-16 23:51:18,-33.918,25.5701,72.1,83,75,13.8
126,Shellbrook,CA,2022-01-16 23:55:55,53.2168,-106.4011,31.23,95,91,5.21
127,Cidreira,BR,2022-01-16 23:55:55,-30.1811,-50.2056,77.16,84,100,9.33
128,Klaksvik,FO,2022-01-16 23:55:56,62.2266,-6.589,36.52,86,100,7.49
129,Kruisfontein,ZA,2022-01-16 23:55:56,-34.0033,24.7314,69.89,90,4,4.56
130,Chapais,CA,2022-01-16 23:55:56,49.7834,-74.8492,4.78,77,100,10.85
131,Balabac,PH,2022-01-16 23:55:57,7.9868,117.0645,80.92,77,99,18.34
132,Souillac,MU,2022-01-16 23:55:57,-20.5167,57.5167,78.37,88,40,3.44
133,Tongliao,CN,2022-01-16 23:55:57,43.6125,122.2653,-0.9,89,93,8.41
134,Amroha,IN,2022-01-16 23:55:58,28.9167,78.4667,45.63,66,58,4.41
135,Zanjan,IR,2022-01-16 23:56:58,36.6736,48.4787,29.71,93,94,5.39
136,Mallaig,CA,2022-01-16 23:56:58,54.2169,-111.3685,18.9,95,100,4.99
137,Zhifang,CN,2022-01-16 23:56:59,30.35,114.3167,39.18,74,100,3.78
138,Sidi Ali,DZ,2022-01-16 23:56:59,36.0998,0.4206,46.81,78,0,3.15
139,Saint George,US,2022-01-16 23:55:49,37.1041,-113.5841,54.63,36,0,1.01
140,Dali,CN,2022-01-16 23:57:00,25.7,100.1833,36.46,88,1,0.76
141,Faanui,PF,2022-01-16 23:57:00,-16.4833,-151.75,79.95,82,100,16.64
142,San Cristobal,VE,2022-01-16 23:57:00,7.7669,-72.225,73.58,70,41,1.54
143,San Patricio,US,2022-01-16 23:57:01,28.017,-97.5169,65.53,20,0,3.6
144,Castro,BR,2022-01-16 23:57:01,-24.7911,-50.0119,64.71,97,86,4.18
145,Lecce,IT,2022-01-16 23:57:01,40.2167,18.1667,44.06,71,1,5.46
146,Hithadhoo,MV,2022-01-16 23:57:02,-0.6,73.0833,80.89,72,100,4.7
147,Karachi,PK,2022-01-16 23:56:26,24.9056,67.0822,58.82,51,78,6.91
148,Saldanha,ZA,2022-01-16 23:57:02,-33.0117,17.9442,64.45,91,39,7.25
149,Thompson,CA,2022-01-16 23:57:03,55.7435,-97.8558,-5.64,71,100,9.22
150,Tuktoyaktuk,CA,2022-01-16 23:57:03,69.4541,-133.0374,-34.6,67,0,6.91
151,Chara,RU,2022-01-16 23:57:03,56.9064,118.2631,-31.92,78,19,1.61
152,Gisborne,NZ,2022-01-16 23:57:04,-38.6533,178.0042,68.95,78,100,20.0
153,Los Llanos De Aridane,ES,2022-01-16 23:57:04,28.6585,-17.9182,67.12,39,98,8.01
154,Husavik,IS,2022-01-16 23:57:05,66.0449,-17.3389,21.11,93,100,10.36
155,Lagunas,PE,2022-01-16 23:57:05,-5.2269,-75.6753,78.76,68,89,3.33
156,Bengkulu,ID,2022-01-16 23:57:05,-3.8004,102.2655,75.52,88,69,3.98
157,Ust-Kut,RU,2022-01-16 23:57:06,56.7938,105.7672,3.96,97,100,2.04
158,Vitim,RU,2022-01-16 23:57:06,59.4511,112.5578,-28.34,99,19,2.77
159,Charcas,MX,2022-01-16 23:57:07,23.1333,-101.1167,61.36,26,38,0.89
160,Pevek,RU,2022-01-16 23:57:07,69.7008,170.3133,-25.91,97,40,1.45
161,Garissa,KE,2022-01-16 23:57:07,-0.4536,39.6401,79.07,58,28,8.79
162,Lorengau,PG,2022-01-16 23:57:08,-2.0226,147.2712,82.33,79,97,2.44
163,Nanortalik,GL,2022-01-16 23:57:08,60.1432,-45.2371,25.43,79,96,14.36
164,Zeya,RU,2022-01-16 23:57:09,53.75,127.2667,-7.76,79,99,4.14
165,Urdoma,RU,2022-01-16 23:57:09,61.7533,48.5442,8.15,95,91,7.63
166,Heinola,FI,2022-01-16 23:52:20,61.2056,26.0381,30.29,87,86,6.82
167,Joshimath,IN,2022-01-16 23:57:10,30.5667,79.5667,42.28,48,88,8.81
168,Mount Gambier,AU,2022-01-16 23:57:10,-37.8333,140.7667,67.91,52,75,11.5
169,Stephenville,US,2022-01-16 23:53:59,32.2207,-98.2023,61.41,18,0,3.44
170,Misratah,LY,2022-01-16 23:52:22,32.3754,15.0925,58.37,65,49,12.35
171,Harper,LR,2022-01-16 23:57:11,4.375,-7.7169,78.58,86,4,5.66
172,Le Havre,FR,2022-01-16 23:57:11,49.4938,0.1077,47.95,100,75,3.44
173,Kanniyakumari,IN,2022-01-16 23:57:12,8.0833,77.5667,76.89,79,53,19.08
174,Vila Franca Do Campo,PT,2022-01-16 23:57:12,37.7167,-25.4333,57.61,77,26,12.55
175,Bluff,NZ,2022-01-16 23:57:12,-46.6,168.3333,66.51,57,92,1.5
176,Havre-Saint-Pierre,CA,2022-01-16 23:57:13,50.2334,-63.5986,18.19,72,75,16.11
177,Vestmanna,FO,2022-01-16 23:57:13,62.1564,-7.1664,34.72,93,100,2.3
178,Leningradskiy,RU,2022-01-16 23:57:13,69.3833,178.4167,-26.23,96,38,4.47
179,Batticaloa,LK,2022-01-16 23:57:14,7.7102,81.6924,78.03,78,64,8.28
180,Glyadyanskoye,RU,2022-01-16 23:57:14,54.9075,65.0883,6.8,89,100,18.37
181,Kieta,PG,2022-01-16 23:58:15,-6.2167,155.6333,85.91,66,100,1.48
182,Sayat,TM,2022-01-16 23:58:15,38.7839,63.8803,40.87,68,100,4.34
183,Nacala,MZ,2022-01-16 23:58:15,-14.5428,40.6728,74.05,95,100,4.12
184,Filadelfia,US,2022-01-16 23:57:01,39.9523,-75.1638,30.45,86,100,7.0
185,Zhigansk,RU,2022-01-16 23:58:16,66.7697,123.3711,-49.38,100,66,5.28
186,Honningsvag,NO,2022-01-16 23:58:16,70.9821,25.9704,25.84,64,100,24.49
187,Touros,BR,2022-01-16 23:58:16,-5.1989,-35.4608,81.5,75,45,12.57
188,Solenzo,BF,2022-01-16 23:58:17,12.1833,-4.0833,74.66,15,87,8.12
189,Ciudad Guayana,VE,2022-01-16 23:58:17,8.3533,-62.6528,74.01,92,68,6.6
190,Shenjiamen,CN,2022-01-16 23:58:18,29.9576,122.298,47.23,73,100,7.29
191,Pokhara,NP,2022-01-16 23:58:18,28.2333,83.9833,51.28,31,69,4.29
192,Mafinga,TZ,2022-01-16 23:58:18,-7.25,35.0667,65.91,96,100,3.44
193,Antalaha,MG,2022-01-16 23:58:19,-14.9003,50.2788,74.86,85,97,3.29
194,Bundaberg,AU,2022-01-16 23:58:19,-24.85,152.35,84.49,58,100,5.75
195,Kununurra,AU,2022-01-16 23:58:20,-15.7667,128.7333,82.38,83,78,1.14
196,Majene,ID,2022-01-16 23:58:20,-3.5403,118.9707,80.35,74,100,6.15
197,Carutapera,BR,2022-01-16 23:58:21,-1.195,-46.02,75.15,94,80,5.37
198,Korla,CN,2022-01-16 23:58:21,41.7597,86.1469,23.13,55,0,4.16
199,Flinders,AU,2022-01-16 23:58:21,-34.5833,150.8552,82.18,76,46,4.0
200,Kloulklubed,PW,2022-01-16 23:58:22,7.0419,134.2556,81.93,79,100,15.99
201,Yulara,AU,2022-01-16 23:58:22,-25.2406,130.9889,73.24,100,100,17.27
202,Coquimbo,CL,2022-01-16 23:58:23,-29.9533,-71.3436,67.73,68,0,12.66
203,Khatanga,RU,2022-01-16 23:58:23,71.9667,102.5,-17.5,92,23,4.72
204,Verkhnyaya Inta,RU,2022-01-16 23:58:23,65.9811,60.3094,-11.27,100,98,3.11
205,Padang,ID,2022-01-16 23:57:30,-0.9492,100.3543,77.38,86,40,3.78
206,Akdepe,TM,2022-01-16 23:58:24,42.0551,59.3788,28.49,68,100,6.22
207,Olafsvik,IS,2022-01-16 23:58:24,64.8945,-23.7142,43.23,95,100,25.46
208,Komsomolskiy,UZ,2022-01-16 23:58:24,40.4272,71.7189,41.72,48,95,9.22
209,Bairiki,KI,2022-01-16 23:58:25,1.3292,172.9752,86.0,74,40,8.05
210,Cape Girardeau,US,2022-01-16 23:56:09,37.3834,-89.7168,33.8,66,25,3.0
211,Port Hedland,AU,2022-01-16 23:58:25,-20.3167,118.5667,84.25,70,100,13.8
212,Nawabganj,BD,2022-01-16 23:58:26,24.5911,88.271,52.07,45,0,7.0
213,Fuerte Olimpo,PY,2022-01-16 23:58:26,-21.0415,-57.8738,91.87,35,62,12.1
214,Sinop,TR,2022-01-16 23:58:26,41.7711,34.8709,23.72,90,96,8.08
215,Aksha,RU,2022-01-16 23:58:27,50.2814,113.2867,-9.02,98,65,1.86
216,Nouadhibou,MR,2022-01-16 23:58:27,20.931,-17.0347,67.98,60,99,12.66
217,Kashi,CN,2022-01-16 23:58:27,39.4547,75.9797,28.22,46,20,8.95
218,Aguimes,ES,2022-01-16 23:58:28,27.9054,-15.4461,65.03,49,20,12.66
219,Yerofey Pavlovich,RU,2022-01-16 23:58:28,53.9667,121.9667,-24.54,96,5,2.98
220,Hun,LY,2022-01-16 23:58:28,29.1268,15.9477,48.11,85,54,5.37
221,Cayenne,GF,2022-01-16 23:58:28,4.9333,-52.3333,80.1,84,75,5.01
222,San Jeronimo,PE,2022-01-16 23:58:29,-11.9472,-75.2829,51.78,78,89,3.85
223,Oistins,BB,2022-01-16 23:58:29,13.0667,-59.5333,77.09,69,20,17.27
224,Roebourne,AU,2022-01-16 23:58:30,-20.7833,117.1333,84.4,47,11,15.28
225,Amapa,BR,2022-01-16 23:58:30,1.0,-52.0,72.25,98,100,1.7
226,Kaitangata,NZ,2022-01-16 23:59:30,-46.2817,169.8464,65.64,65,98,1.9
227,Mayumba,GA,2022-01-16 23:59:31,-3.432,10.6554,75.49,91,100,1.92
228,Ahipara,NZ,2022-01-16 23:59:31,-35.1667,173.1667,73.33,58,0,11.97
229,Mackay,AU,2022-01-16 23:57:57,-21.15,149.2,91.69,70,75,10.36
230,Williams Lake,CA,2022-01-16 23:59:31,52.1415,-122.1445,38.77,84,75,5.75
231,Mehamn,NO,2022-01-16 23:59:32,71.0357,27.8492,24.17,68,100,20.56
232,Vernon,CA,2022-01-16 23:59:32,50.2581,-119.2691,40.14,78,100,1.14
233,Ankang,CN,2022-01-16 23:56:20,32.68,109.0172,40.87,64,58,0.6
234,Sterling,US,2022-01-16 23:57:11,39.0062,-77.4286,31.64,94,100,1.99
235,Virginia Beach,US,2022-01-16 23:55:22,36.8529,-75.978,56.01,89,100,31.07
236,Nyimba,ZM,2022-01-16 23:59:33,-14.5566,30.8149,67.12,97,100,0.63
237,Nanning,CN,2022-01-16 23:59:33,22.8167,108.3167,52.25,85,100,7.05
238,Katsuura,JP,2022-01-16 23:59:33,35.1333,140.3,49.19,54,90,4.94
239,Whitehorse,CA,2022-01-16 23:59:34,60.7161,-135.0538,27.37,93,100,11.5
240,Surgana,IN,2022-01-16 23:59:34,20.5667,73.6167,62.26,63,22,6.22
241,Hamilton,US,2022-01-16 23:59:34,39.1834,-84.5333,32.22,88,100,1.99
242,Doha,QA,2022-01-16 23:59:03,25.2867,51.5333,67.89,94,0,5.75
243,College,US,2022-01-16 23:59:34,64.8569,-147.8028,4.28,86,100,1.05
244,Cururupu,BR,2022-01-16 23:59:35,-1.8283,-44.8683,74.44,93,31,2.98
245,Katangli,RU,2022-01-16 23:59:35,51.7102,143.2326,10.53,92,100,13.73
246,Rocha,UY,2022-01-16 23:56:26,-34.4833,-54.3333,73.13,91,81,5.84
247,Canala,NC,2022-01-16 23:59:36,-21.5333,165.95,82.89,63,47,7.83
248,Sao Filipe,CV,2022-01-16 23:59:36,14.8961,-24.4956,71.44,72,0,4.63
249,Tual,ID,2022-01-16 23:59:36,-5.6667,132.75,78.3,87,100,12.37
250,Krasnoselkup,RU,2022-01-16 23:59:37,65.7,82.4667,10.92,90,100,17.72
251,Combs-La-Ville,FR,2022-01-16 23:59:37,48.665,2.5696,43.12,99,100,6.91
252,Correntina,BR,2022-01-16 23:59:37,-13.3433,-44.6367,70.5,81,85,3.24
253,Beloha,MG,2022-01-16 23:59:38,-25.1667,45.05,71.78,91,35,8.77
254,Pangnirtung,CA,2022-01-16 23:59:38,66.1451,-65.7125,-14.08,67,1,5.7
255,East London,ZA,2022-01-16 23:59:39,-33.0153,27.9116,74.73,89,54,1.07
256,Codrington,AU,2022-01-16 23:59:39,-38.2667,141.9667,65.7,64,99,13.82
257,Iqaluit,CA,2022-01-16 23:59:39,63.7506,-68.5145,-25.31,67,75,2.3
258,Qobustan,AZ,2022-01-16 23:59:40,40.0824,49.412,35.71,83,100,5.26
259,Dikson,RU,2022-01-16 23:59:40,73.5069,80.5464,9.63,90,100,24.38
260,Namanga,KE,2022-01-16 23:59:40,-2.5433,36.7905,67.64,80,100,0.89
261,Kulhudhuffushi,MV,2022-01-16 23:59:41,6.6221,73.07,81.18,72,50,5.41
262,Shahr-E Babak,IR,2022-01-16 23:59:41,30.1165,55.1186,39.04,82,5,8.95
263,Poum,NC,2022-01-16 23:59:42,-20.2333,164.0167,81.27,71,92,14.18
264,Quatre Cocos,MU,2022-01-16 23:59:42,-20.2078,57.7625,78.1,84,58,4.52
265,Hilton Head Island,US,2022-01-16 23:59:42,32.2163,-80.7526,55.4,60,100,13.8
266,Wanning,CN,2022-01-16 23:59:43,18.8003,110.3967,69.24,89,38,5.88
267,Floro,NO,2022-01-16 23:59:43,61.5996,5.0328,35.56,55,40,34.52
268,Ust-Nera,RU,2022-01-16 23:59:43,64.5667,143.2,-34.58,91,16,1.25
269,Itoman,JP,2022-01-16 23:59:44,26.1247,127.6694,62.62,88,75,12.66
270,Kholmogory,RU,2022-01-16 23:59:44,64.2229,41.656,23.11,96,100,9.26
271,Punta Alta,AR,2022-01-16 23:59:44,-38.8759,-62.0736,66.6,62,50,21.52
272,Vila Velha,BR,2022-01-16 23:59:45,-20.3297,-40.2925,80.55,85,40,1.01
273,Lompoc,US,2022-01-16 23:59:45,34.6391,-120.4579,69.26,58,73,1.99
274,Portland,US,2022-01-17 00:00:08,45.5234,-122.6762,48.27,83,40,1.01
275,Lagoa,PT,2022-01-17 00:00:45,39.05,-27.9833,56.32,54,64,15.03
276,Kiama,AU,2022-01-17 00:00:46,-34.6833,150.8667,88.25,73,45,8.01
277,Zonguldak,TR,2022-01-17 00:00:46,41.25,31.8333,17.31,92,27,5.41
278,Mwinilunga,ZM,2022-01-17 00:00:46,-11.7358,24.4293,60.44,96,100,2.57
279,Kodinsk,RU,2022-01-17 00:00:47,58.6881,99.1844,-7.64,100,94,1.23
280,Juneau,US,2022-01-16 23:56:16,58.3019,-134.4197,38.84,96,100,5.75
281,Americana,BR,2022-01-16 23:59:57,-22.7392,-47.3314,78.1,88,55,2.33
282,Marshalltown,US,2022-01-16 23:58:52,42.0494,-92.908,27.46,91,100,9.71
283,Caravelas,BR,2022-01-17 00:00:47,-17.7125,-39.2481,77.11,85,1,7.02
284,Merauke,ID,2022-01-17 00:00:48,-8.4667,140.3333,82.6,76,100,7.87
285,Dingle,PH,2022-01-17 00:00:48,10.9995,122.6711,75.83,85,95,12.75
286,Dicabisagan,PH,2022-01-17 00:00:49,17.0818,122.4157,73.45,73,91,3.94
287,Ganzhou,CN,2022-01-17 00:00:49,28.8184,115.4327,46.04,91,100,3.06
288,Hervey Bay,AU,2022-01-17 00:00:49,-25.2986,152.8535,84.31,67,47,4.41
289,Narsaq,GL,2022-01-17 00:00:50,60.9167,-46.05,35.82,89,100,8.57
290,Alice Springs,AU,2022-01-17 00:00:50,-23.7,133.8833,74.75,83,75,12.66
291,Katherine,AU,2022-01-17 00:00:51,-14.4667,132.2667,80.92,78,100,4.61
292,Iquitos,PE,2022-01-17 00:00:51,-3.7481,-73.2472,79.54,72,93,2.04
293,Fargo,US,2022-01-16 23:59:17,46.8772,-96.7898,25.0,81,0,1.99
294,Chimbote,PE,2022-01-17 00:00:52,-9.0853,-78.5783,71.98,81,62,8.01
295,Challans,FR,2022-01-17 00:00:52,46.8436,-1.8749,41.2,90,100,6.06
296,Sao Joao Da Barra,BR,2022-01-17 00:00:52,-21.6403,-41.0511,75.85,84,69,12.26
297,Sri Aman,MY,2022-01-17 00:00:53,1.2376,111.4621,75.02,97,98,0.58
298,San Carlos De Bariloche,AR,2022-01-17 00:00:53,-41.1456,-71.3082,45.77,45,66,6.93
299,Puerto Guzman,CO,2022-01-17 00:00:54,0.9703,-76.5858,72.0,96,76,3.58
300,Shache,CN,2022-01-17 00:00:54,38.4167,77.2406,23.32,53,2,0.98
301,Balkhash,KZ,2022-01-17 00:00:54,46.844,74.9804,31.33,96,100,7.14
302,Kushiro,JP,2022-01-17 00:00:55,42.975,144.3747,29.35,100,100,9.22
303,Ribeira Brava,PT,2022-01-17 00:00:55,32.65,-17.0667,65.03,73,89,17.67
304,San Lorenzo,PY,2022-01-17 00:00:56,-25.3333,-57.5333,94.98,27,38,10.63
305,Patacamaya,BO,2022-01-17 00:00:56,-17.2333,-67.9167,49.28,75,93,12.59
306,Inowroclaw,PL,2022-01-17 00:00:57,52.7989,18.2639,39.11,100,100,4.0
307,Laguna,US,2022-01-17 00:00:57,38.421,-121.4238,64.24,70,0,1.01
308,Naze,JP,2022-01-17 00:00:58,28.3667,129.4833,53.78,83,100,17.69
309,Cravo Norte,CO,2022-01-17 00:00:58,6.3017,-70.2041,83.82,53,77,3.11
310,Homer,US,2022-01-16 23:59:24,59.6425,-151.5483,18.09,80,22,3.67
311,Dutse,NG,2022-01-17 00:00:59,11.7594,9.3392,62.22,23,55,10.47
312,Rawson,AR,2022-01-17 00:00:59,-43.3002,-65.1023,63.21,29,31,12.59
313,Kajaani,FI,2022-01-17 00:00:59,64.2273,27.7285,24.85,68,0,16.11
314,Geraldton,AU,2022-01-17 00:01:00,-28.7667,114.6,77.13,64,18,11.5
315,Axim,GH,2022-01-17 00:01:00,4.8699,-2.2405,79.11,83,44,5.73
316,Andapa,MG,2022-01-17 00:01:00,-14.65,49.65,67.26,96,98,3.33
317,Letterkenny,IE,2022-01-17 00:01:01,54.95,-7.7333,37.67,91,12,3.13
318,Alofi,NU,2022-01-17 00:01:01,-19.0595,-169.9187,79.65,68,39,11.74
319,San Rafael Del Sur,NI,2022-01-17 00:01:02,11.8485,-86.4384,76.46,69,5,0.81
320,Kalanguy,RU,2022-01-17 00:01:02,51.0167,116.5167,-23.87,99,8,4.27
321,Huilong,CN,2022-01-17 00:01:03,31.8111,121.655,47.03,66,100,4.09
322,Partizanskoye,RU,2022-01-17 00:01:03,55.5006,94.39,20.77,93,99,4.7
323,Solnechnyy,RU,2022-01-17 00:01:03,50.7214,136.6319,4.71,91,100,6.89
324,Waiuku,NZ,2022-01-17 00:02:04,-37.25,174.75,80.1,63,0,9.44
325,Eureka,US,2022-01-17 00:02:04,40.8021,-124.1637,54.68,85,46,1.01
326,Rantepao,ID,2022-01-17 00:02:04,-2.9701,119.8978,72.01,82,99,1.48
327,Haines Junction,CA,2022-01-17 00:02:05,60.7522,-137.5108,19.54,97,100,1.95
328,Chenghai,CN,2022-01-17 00:02:05,23.4632,116.768,59.56,79,99,9.28
329,Marawi,PH,2022-01-17 00:02:05,7.9986,124.2928,64.65,92,99,2.89
330,Sotouboua,TG,2022-01-17 00:02:06,8.5667,0.9833,76.82,15,99,3.83
331,Sitka,US,2022-01-17 00:02:06,57.0531,-135.33,39.09,87,100,3.44
332,Harwich,GB,2022-01-17 00:02:06,51.9419,1.2844,43.18,87,70,4.0
333,Yanam,IN,2022-01-17 00:02:07,16.7333,82.2167,71.22,81,63,6.87
334,Evensk,RU,2022-01-17 00:02:07,61.95,159.2333,4.51,63,0,10.94
335,Bethel,US,2022-01-17 00:02:07,41.3712,-73.414,33.66,77,75,3.0
336,Cookeville,US,2022-01-16 23:57:23,36.1628,-85.5016,31.78,96,100,1.99
337,Boende,CD,2022-01-17 00:02:07,-0.2167,20.8667,69.96,95,100,0.56
338,Krasnovishersk,RU,2022-01-17 00:02:08,60.4078,57.082,-19.8,100,96,1.72
339,Hovd,MN,2022-01-17 00:02:08,48.0056,91.6419,4.93,77,96,1.59
340,Rapid City,US,2022-01-17 00:02:08,44.0805,-103.231,41.02,45,0,3.0
341,Shima,CN,2022-01-17 00:02:09,24.4478,117.8111,57.43,77,86,4.16
342,Banda Aceh,ID,2022-01-17 00:00:28,5.5577,95.3222,76.91,86,57,9.73
343,Walvis Bay,NA,2022-01-17 00:02:09,-22.9575,14.5053,68.09,82,69,5.75
344,Bentiu,SS,2022-01-17 00:02:09,9.2333,29.8333,80.76,22,76,5.48
345,Cusuna,HN,2022-01-17 00:02:10,15.85,-85.2333,73.6,89,35,11.41
346,Kharan,PK,2022-01-17 00:02:10,28.5833,65.4167,56.46,55,64,4.59
347,Ternate,ID,2022-01-17 00:02:10,0.8,127.4,78.94,80,100,5.03
348,Georgetown,MY,2022-01-17 00:01:30,5.4112,100.3354,79.9,80,20,1.99
349,Punto Fijo,VE,2022-01-17 00:02:11,11.6956,-70.1996,78.53,82,13,23.6
350,Ucluelet,CA,2022-01-17 00:02:11,48.9329,-125.5528,46.09,88,100,1.01
351,Grand Gaube,MU,2022-01-17 00:02:11,-20.0064,57.6608,78.39,85,34,5.19
352,Saravan,AM,2022-01-17 00:02:12,39.7196,45.6483,3.85,78,96,6.98
353,Vredendal,ZA,2022-01-17 00:02:12,-31.6683,18.5012,64.29,92,7,7.9
354,Porto Velho,BR,2022-01-17 00:00:44,-8.7619,-63.9039,77.68,83,87,2.82
355,Nemuro,JP,2022-01-17 00:02:12,43.3236,145.575,28.83,99,100,19.71
356,Lambarene,GA,2022-01-17 00:02:13,-0.7001,10.2406,73.81,95,97,1.66
357,Guadalupe Y Calvo,MX,2022-01-17 00:02:13,26.1,-106.9667,55.06,51,67,4.81
358,Sonqor,IR,2022-01-17 00:02:13,34.7837,47.6004,29.5,96,98,9.28
359,Kapuskasing,CA,2022-01-17 00:02:14,49.4169,-82.4331,19.85,88,100,10.51
360,Terrak,NO,2022-01-17 00:02:14,65.087,12.3715,30.07,64,100,22.55
361,Thiruvananthapuram,IN,2022-01-16 23:58:23,8.4833,76.9167,78.78,89,20,3.44
362,Susanville,US,2022-01-17 00:02:14,40.4163,-120.653,39.67,75,0,0.0
363,Pochutla,MX,2022-01-17 00:02:15,15.7432,-96.4661,77.38,69,26,4.97
364,Brae,GB,2022-01-17 00:02:15,60.3964,-1.353,42.71,96,100,17.16
365,Port Hardy,CA,2022-01-17 00:02:15,50.6996,-127.4199,47.75,95,100,15.03
366,Tongzi,CN,2022-01-17 00:02:16,28.7829,105.0877,47.64,78,100,1.97
367,Tiarei,PF,2022-01-17 00:02:16,-17.5333,-149.3333,86.02,79,96,18.48
368,Santa Cruz De La Palma,ES,2022-01-17 00:02:16,28.6835,-17.7642,71.13,40,100,21.85
369,Akyab,MM,2022-01-17 00:02:17,20.15,92.9,63.66,72,0,6.67
370,Ambon,ID,2022-01-17 00:02:17,-3.6954,128.1814,81.86,77,100,8.43
371,Kota Bahru,MY,2022-01-17 00:03:17,6.1333,102.2386,75.16,88,67,5.06
372,Qixia,CN,2022-01-17 00:03:18,37.2975,120.8256,27.1,67,8,4.83
373,Mecca,SA,2022-01-17 00:02:12,21.4267,39.8261,62.15,55,2,7.14
374,Faya,SA,2022-01-17 00:03:18,18.3851,42.4509,52.79,86,27,5.53
375,Severo-Kurilsk,RU,2022-01-17 00:03:18,50.6789,156.125,27.91,64,27,13.15
376,Sao Francisco De Assis,BR,2022-01-17 00:03:19,-29.5503,-55.1311,93.56,28,65,5.35
377,Itaituba,BR,2022-01-17 00:03:19,-4.2761,-55.9836,73.96,97,76,1.19
378,Viloco,BO,2022-01-17 00:03:19,-16.95,-67.55,47.71,76,61,6.33
379,Atambua,ID,2022-01-17 00:03:20,-9.1061,124.8925,78.66,80,100,3.49
380,Kavaratti,IN,2022-01-17 00:03:20,10.5669,72.642,78.98,69,48,3.13
381,Melegnano,IT,2022-01-17 00:03:21,45.3588,9.324,47.48,74,0,1.99
382,Saint Anthony,US,2022-01-17 00:01:43,45.0205,-93.218,26.74,83,75,1.01
383,Tezu,IN,2022-01-17 00:03:21,27.9167,96.1667,53.87,50,5,4.14
384,Lahaina,US,2022-01-17 00:03:21,20.8783,-156.6825,83.44,84,0,1.34
385,Yugorsk,RU,2022-01-17 00:03:22,61.3133,63.3319,2.43,94,100,9.22
386,Aykhal,RU,2022-01-17 00:03:22,66.0,111.5,-23.4,100,83,12.1
387,Luderitz,NA,2022-01-17 00:03:22,-26.6481,15.1594,68.31,83,0,10.22
388,Makat,KZ,2022-01-17 00:03:22,47.6469,53.3463,27.27,93,96,14.0
389,Beinamar,TD,2022-01-17 00:03:23,8.6698,15.3813,70.54,21,21,5.08
390,Pryazha,RU,2022-01-17 00:03:23,61.6926,33.6216,32.4,93,100,12.73
391,Bulgan,MN,2022-01-17 00:03:23,48.8125,103.5347,3.79,82,13,5.08
392,Vao,NC,2022-01-17 00:03:24,-22.6667,167.4833,76.12,74,29,18.45
393,Christchurch,NZ,2022-01-17 00:03:24,-43.5333,172.6333,73.47,64,75,18.41
394,Polunochnoye,RU,2022-01-17 00:03:24,60.8697,60.4153,-14.57,99,69,3.78
395,Egvekinot,RU,2022-01-17 00:03:25,66.3167,-179.1667,-16.42,87,7,9.69
396,Nabire,ID,2022-01-17 00:03:25,-3.3667,135.4833,80.73,80,100,0.6
397,Talnakh,RU,2022-01-17 00:03:25,69.4865,88.3972,13.21,86,100,17.29
398,Pakxan,LA,2022-01-17 00:03:25,18.3778,103.6601,63.27,88,48,3.47
399,Saint-Ambroise,CA,2022-01-17 00:03:26,48.5501,-71.3324,-3.1,96,80,3.27
400,Praia Da Vitoria,PT,2022-01-17 00:03:26,38.7333,-27.0667,52.75,71,56,13.65
401,Isangel,VU,2022-01-17 00:03:26,-19.55,169.2667,82.85,58,2,9.42
402,Igrim,RU,2022-01-17 00:03:27,63.1906,64.4162,-4.59,100,100,7.14
403,Shimoda,JP,2022-01-17 00:03:27,34.6667,138.95,50.11,61,67,24.16
404,Bivolari,RO,2022-01-17 00:03:27,47.5333,27.4333,31.21,59,91,5.41
405,Pisco,PE,2022-01-17 00:03:28,-13.7,-76.2167,71.02,90,36,8.05
406,Chany,RU,2022-01-17 00:03:28,55.3121,76.7647,24.57,79,100,24.0
407,Rio Cuarto,AR,2022-01-17 00:03:28,-33.1307,-64.3499,65.84,73,29,2.55
408,Kinablangan,PH,2022-01-17 00:03:29,7.6947,126.5503,77.02,89,100,8.61
409,Alexandria,EG,2022-01-17 00:00:05,31.2156,29.9553,54.82,54,95,14.56
410,Abu Dhabi,AE,2022-01-17 00:02:51,24.4667,54.3667,69.96,70,5,4.0
411,Bathsheba,BB,2022-01-17 00:03:29,13.2167,-59.5167,77.52,68,23,17.18
412,Miaga,PH,2022-01-17 00:03:29,12.2376,123.8167,78.03,74,75,16.58
413,Imeni Babushkina,RU,2022-01-17 00:03:30,59.7573,43.1285,21.96,91,100,10.87
414,Camacupa,AO,2022-01-17 00:03:30,-12.0167,17.4833,61.2,77,52,3.78
415,Angoche,MZ,2022-01-17 00:03:30,-16.2325,39.9086,75.49,93,100,6.44
416,Hit,IQ,2022-01-17 00:04:31,33.6416,42.8251,46.94,36,90,9.48
417,Uporovo,RU,2022-01-17 00:04:31,56.3109,66.2693,11.52,88,100,20.22
418,Sinnamary,GF,2022-01-17 00:04:31,5.3833,-52.95,77.47,85,82,11.99
419,Luanda,AO,2022-01-17 00:04:32,-8.8368,13.2343,74.41,78,12,6.02
420,Potosi,BO,2022-01-16 23:59:48,-19.5836,-65.7531,45.14,80,100,5.28
421,Chingirlau,KZ,2022-01-17 00:04:32,51.095,54.0814,2.55,99,76,4.14
422,Varnamo,SE,2022-01-17 00:04:32,57.186,14.04,43.27,86,100,11.99
423,Maromitsa,RU,2022-01-17 00:04:33,59.8683,48.0123,13.62,94,100,9.8
424,Semporna,MY,2022-01-17 00:04:33,4.4818,118.6112,76.8,88,100,6.35
425,Oga,IT,2022-01-17 00:04:33,46.4631,10.347,26.96,93,12,4.99
426,Labrea,BR,2022-01-17 00:04:34,-7.2586,-64.7981,74.48,95,100,0.76
427,Skelleftea,SE,2022-01-17 00:04:34,64.7507,20.9528,28.0,54,97,3.0
428,Vereshchagino,RU,2022-01-17 00:04:34,58.0789,54.6557,10.18,93,99,8.03
429,Villa Union,MX,2022-01-17 00:04:34,23.2,-106.2333,76.96,69,100,6.91
430,Prado,BR,2022-01-17 00:04:35,-17.3411,-39.2208,76.14,89,6,5.99
431,Semme,FR,2022-01-17 00:04:35,46.1963,1.5007,37.81,77,89,1.43
432,Aklavik,CA,2022-01-17 00:04:35,68.2191,-135.0107,-37.1,100,72,6.17
433,Maymyo,MM,2022-01-17 00:04:36,22.0333,96.4667,45.77,92,0,3.31
434,Baykit,RU,2022-01-17 00:04:36,61.67,96.37,-13.9,100,66,2.62
435,Beringovskiy,RU,2022-01-17 00:04:36,63.05,179.3167,-13.97,87,24,18.68
436,Syedove,UA,2022-01-17 00:04:37,47.0768,38.156,30.0,74,75,11.54
437,Bela,IN,2022-01-17 00:04:37,25.9333,81.9833,43.18,56,0,4.88
438,Meulaboh,ID,2022-01-17 00:04:37,4.1363,96.1285,74.75,90,31,4.45
439,Bekasi,ID,2022-01-17 00:04:37,-6.2349,106.9896,82.49,80,15,6.17
440,Ginda,IN,2022-01-17 00:04:38,30.6945,78.4932,44.6,38,100,6.06
441,Ostrovnoy,RU,2022-01-17 00:04:38,68.0531,39.5131,27.16,88,100,21.18
442,Orzhytsya,UA,2022-01-17 00:04:38,49.7918,32.7012,27.72,83,26,10.2
443,Channel-Port Aux Basques,CA,2022-01-17 00:04:39,47.5702,-59.1367,24.17,70,88,22.68
444,Elkhart,US,2022-01-17 00:04:39,41.5823,-85.8344,29.48,68,0,6.91
445,Vanavara,RU,2022-01-17 00:04:39,60.34,102.2797,-13.61,100,41,3.76
446,Porterville,US,2022-01-16 23:59:44,36.0652,-119.0168,65.52,45,74,2.44
447,Chuy,UY,2022-01-17 00:04:40,-33.6971,-53.4616,73.51,92,75,5.84
448,Yantal,RU,2022-01-17 00:04:40,56.8471,105.2542,7.56,96,100,2.95
449,Chernyshevskiy,RU,2022-01-17 00:04:40,63.0128,112.4714,-32.13,99,95,2.66
450,Masty,BY,2022-01-17 00:04:40,53.4122,24.5387,32.23,90,100,18.7
451,Manyana,BW,2022-01-17 00:04:41,-23.4,21.7167,74.7,58,100,6.67
452,Athabasca,CA,2022-01-17 00:04:41,54.7169,-113.2854,26.83,94,100,4.38
453,Srednekolymsk,RU,2022-01-17 00:04:41,67.45,153.6833,-40.76,98,46,6.64
454,Deputatskiy,RU,2022-01-17 00:04:42,69.3,139.9,-34.56,98,18,4.25
455,Tromso,NO,2022-01-17 00:04:42,69.6496,18.957,26.62,80,100,1.99
456,Talcahuano,CL,2022-01-17 00:04:42,-36.7167,-73.1167,58.44,70,27,16.11
457,Taree,AU,2022-01-17 00:04:43,-31.9,152.4667,86.11,58,18,4.36
458,Berkakit,RU,2022-01-17 00:04:43,56.5807,124.7681,-44.88,100,98,1.61
459,Panama City,PA,2022-01-17 00:04:43,8.9936,-79.5197,83.05,71,40,3.44
460,Leh,IN,2022-01-17 00:04:43,34.1667,77.5833,0.21,74,83,4.21
461,Mayo,US,2022-01-17 00:04:44,38.8876,-76.5119,33.91,92,100,7.0
462,Champerico,GT,2022-01-17 00:04:44,14.3,-91.9167,81.36,70,2,6.58
463,Bajil,YE,2022-01-17 00:04:44,15.0584,43.2851,75.85,75,5,3.62
464,Mankono,CI,2022-01-17 00:05:45,8.0586,-6.1897,77.47,21,93,5.73
465,Bowmore,US,2022-01-17 00:05:45,34.9421,-79.3031,37.62,93,100,8.05
466,Clyde River,CA,2022-01-17 00:05:45,70.4692,-68.5914,-7.37,77,40,25.32
467,Casablanca,MA,2022-01-17 00:05:46,33.5928,-7.6192,59.32,77,62,8.01
468,Itaueira,BR,2022-01-17 00:05:46,-7.6033,-43.0256,75.36,72,66,0.96
469,Pamekasan,ID,2022-01-17 00:05:46,-7.1568,113.4746,78.53,85,100,7.56
470,Port-Gentil,GA,2022-01-17 00:05:47,-0.7193,8.7815,78.13,84,85,9.22
471,Mocuba,MZ,2022-01-17 00:05:47,-16.8392,36.9856,71.29,98,100,3.2
472,Hobyo,SO,2022-01-17 00:05:47,5.3505,48.5268,76.89,75,99,13.76
473,Huarmey,PE,2022-01-17 00:05:48,-10.0681,-78.1522,72.84,79,55,8.46
474,Aksarayskiy,RU,2022-01-17 00:05:48,46.7924,48.0119,28.35,93,73,11.18
475,Urengoy,RU,2022-01-17 00:05:48,65.9667,78.3667,10.92,94,100,15.23
476,Khlong Luang,TH,2022-01-17 00:05:49,14.0647,100.6458,79.0,83,20,2.3
477,Kudahuvadhoo,MV,2022-01-17 00:05:49,2.6708,72.8944,81.52,77,99,9.89
478,Nogliki,RU,2022-01-17 00:05:49,51.8333,143.1667,10.49,93,100,13.85
479,Menongue,AO,2022-01-17 00:05:50,-14.6585,17.691,68.05,37,99,3.24
480,Port Macquarie,AU,2022-01-17 00:02:46,-31.4333,152.9167,82.89,72,30,9.06
481,Mount Isa,AU,2022-01-17 00:01:32,-20.7333,139.5,94.77,31,100,14.97
482,Lashio,MM,2022-01-17 00:05:50,22.9333,97.75,47.57,98,15,1.95
483,Bilibino,RU,2022-01-17 00:05:51,68.0546,166.4372,-19.1,83,11,3.27
484,Marzuq,YE,2022-01-17 00:05:51,14.4,46.4667,64.76,62,65,4.09
485,Sigli,ID,2022-01-17 00:05:51,5.3848,95.9609,76.89,85,66,4.0
486,Asyut,EG,2022-01-17 00:05:52,27.181,31.1837,53.35,60,100,10.56
487,Port Said,EG,2022-01-17 00:05:52,31.2565,32.2841,57.36,49,100,21.32
488,Pacific Grove,US,2022-01-17 00:05:52,36.6177,-121.9166,67.59,57,100,1.99
489,Ancud,CL,2022-01-17 00:05:53,-41.8697,-73.8203,49.42,65,25,9.69
490,Saint-Joseph,RE,2022-01-17 00:05:53,-21.3667,55.6167,77.22,83,90,1.36
491,Mattru,SL,2022-01-17 00:05:53,7.6244,-11.8332,75.04,88,60,1.19
492,Taft,IR,2022-01-17 00:05:53,31.7471,54.2088,39.15,39,0,2.3
493,Turukhansk,RU,2022-01-17 00:05:54,65.8167,87.9833,8.78,83,100,17.02
494,Conde,BR,2022-01-17 00:05:54,-7.2597,-34.9075,77.63,76,73,8.16
495,Ust-Tsilma,RU,2022-01-17 00:05:54,65.441,52.1498,-7.38,100,95,4.5
496,Gat,IL,2022-01-17 00:05:55,31.61,34.7642,45.39,100,58,7.05
497,Fasa,IR,2022-01-17 00:05:55,28.9383,53.6482,47.44,93,40,0.0
498,Clonakilty,IE,2022-01-17 00:05:55,51.6231,-8.8706,38.41,82,1,6.26
499,Tilichiki,RU,2022-01-17 00:05:56,60.4667,166.1,-19.7,89,7,11.03
500,Shuangcheng,CN,2022-01-17 00:05:56,45.35,126.2833,-5.64,98,100,3.62
501,Lima,PE,2022-01-17 00:02:02,-12.0432,-77.0282,71.38,38,51,8.41
502,Paka,MY,2022-01-17 00:05:56,4.6374,103.4368,76.23,87,78,7.74
503,Vermilion,US,2022-01-17 00:05:56,40.1667,-87.7506,28.96,73,0,7.0
504,Conakry,GN,2022-01-17 00:05:57,9.538,-13.6773,76.35,79,88,7.92
505,Aras,ES,2022-01-17 00:05:57,42.5617,-2.356,33.06,93,0,8.05
506,Bagdarin,RU,2022-01-17 00:05:57,54.4333,113.6,-24.39,99,33,2.26
507,Morro Bay,US,2022-01-17 00:05:58,35.3658,-120.8499,70.81,53,56,1.01
508,Umba,RU,2022-01-17 00:05:58,66.6871,34.3429,29.61,97,100,11.79
509,Kachug,RU,2022-01-17 00:05:58,53.9606,105.8817,-6.21,99,100,1.12
510,Humaita,BR,2022-01-17 00:05:59,-7.5061,-63.0208,74.03,96,96,1.48
511,Fairview,US,2022-01-17 00:06:38,40.8126,-73.999,36.36,81,100,8.05
512,South Bend,US,2022-01-17 00:04:13,41.6834,-86.25,28.76,55,0,5.75
513,Grants Pass,US,2022-01-17 00:06:59,42.439,-123.3284,58.3,63,15,0.69
514,Ostersund,SE,2022-01-17 00:06:59,63.1792,14.6357,25.61,100,40,20.71
515,Hami,CN,2022-01-17 00:07:00,42.8,93.45,24.48,49,0,2.06
516,Gardabani,GE,2022-01-17 00:07:00,41.4605,45.0928,30.29,57,58,3.29
517,Kabare,CD,2022-01-17 00:07:00,-2.4683,28.8242,59.25,91,100,2.28
518,Kingman,US,2022-01-17 00:07:01,35.1894,-114.053,59.4,22,0,5.75
519,Cockburn Town,TC,2022-01-17 00:03:44,21.4612,-71.1419,78.04,76,5,16.64
520,Maryborough,AU,2022-01-17 00:07:01,-25.5333,152.7,86.14,55,27,4.97
521,Te Anau,NZ,2022-01-17 00:07:01,-45.4167,167.7167,65.77,64,88,3.02
522,Bria,CF,2022-01-17 00:07:02,6.5423,21.9863,71.62,27,85,1.36
523,Sungaipenuh,ID,2022-01-17 00:07:02,-2.0833,101.3833,64.85,95,58,2.26
524,Qasigiannguit,GL,2022-01-17 00:07:03,68.8193,-51.1922,5.25,78,100,4.85
525,Zyryanka,RU,2022-01-17 00:07:03,65.75,150.85,-44.81,100,58,5.88
526,Abapo,BO,2022-01-17 00:07:03,-18.8333,-63.4667,76.73,55,26,6.62
527,Zhangjiakou,CN,2022-01-17 00:07:04,40.81,114.8794,11.89,55,0,5.23
528,Rocky Mountain House,CA,2022-01-17 00:05:30,52.3668,-114.9188,29.82,94,98,3.15
529,Senno,RU,2022-01-17 00:07:04,59.5336,33.9167,31.89,97,100,14.41
530,Severobaykalsk,RU,2022-01-17 00:07:05,55.65,109.3167,-3.08,89,100,3.56
531,Kankon,IN,2022-01-17 00:07:05,15.0167,74.0167,72.12,73,75,4.43
532,Kempsey,AU,2022-01-17 00:07:06,-31.0833,152.8333,82.94,78,32,1.99
533,Wuan,CN,2022-01-17 00:07:06,31.6836,112.0044,41.59,61,100,3.38
534,Mabai,CN,2022-01-17 00:07:06,23.0128,104.4508,50.04,98,100,2.68
535,Asau,RO,2022-01-17 00:07:07,46.4333,26.4,25.72,57,100,7.65
536,Beisfjord,NO,2022-01-17 00:07:07,68.3751,17.5988,30.25,95,100,8.21
537,High Level,CA,2022-01-17 00:07:07,58.5169,-117.136,2.46,96,100,5.64
538,Glendive,US,2022-01-17 00:07:07,47.1053,-104.7125,37.02,75,0,5.75
539,Kutum,SD,2022-01-17 00:07:08,14.2,24.6667,58.41,29,2,8.68
540,Dolores,AR,2022-01-17 00:07:08,-36.3132,-57.6792,71.62,78,74,12.64
541,Mwene-Ditu,CD,2022-01-17 00:07:09,-7.0,23.45,64.02,98,100,4.12
542,Zaraza,VE,2022-01-17 00:07:09,9.3503,-65.3245,77.52,76,97,8.72
543,Kalmunai,LK,2022-01-17 00:07:09,7.4167,81.8167,76.37,84,53,5.5
544,Riyadh,SA,2022-01-17 00:05:43,24.6877,46.7219,53.74,34,2,4.34
545,Praya,CV,2022-01-17 00:05:00,14.9215,-23.5087,72.14,71,2,7.0
546,Manokwari,ID,2022-01-17 00:07:10,-0.8667,134.0833,79.03,82,100,6.69
547,Redlands,US,2022-01-17 00:07:10,34.0556,-117.1825,71.37,31,75,5.75
548,Bahia Honda,CU,2022-01-17 00:07:10,22.9036,-83.1592,69.93,77,94,17.38
549,Huron,US,2022-01-17 00:07:11,41.1501,-82.5499,27.68,89,91,5.41
550,Taksimo,RU,2022-01-17 00:07:11,56.3444,114.8794,-27.9,95,94,1.03
551,Chicama,PE,2022-01-17 00:07:11,-7.8447,-79.1469,68.54,73,34,7.63
552,Sur,OM,2022-01-17 00:07:12,22.5667,59.5289,69.26,78,3,12.95
553,Oristano,IT,2022-01-17 00:07:12,39.9,8.6,48.02,83,3,6.02
554,Murfreesboro,US,2022-01-17 00:07:12,35.8456,-86.3903,32.92,95,100,4.61
=======
0,Tskaltubo,GE,2022-01-16 23:10:32,42.3254,42.5979,31.14,100,100,1.14
1,Walvis Bay,NA,2022-01-16 23:10:32,-22.9575,14.5053,68.09,81,88,8.5
2,Port Elizabeth,ZA,2022-01-16 23:10:33,-33.918,25.5701,72.1,85,100,9.06
3,Cabo San Lucas,MX,2022-01-16 23:09:29,22.8909,-109.9124,83.52,72,20,3.0
4,Rikitea,PF,2022-01-16 23:10:33,-23.1203,-134.9692,77.34,70,34,7.45
5,Jamestown,US,2022-01-16 23:10:33,42.097,-79.2353,27.99,62,100,11.99
6,Hobart,AU,2022-01-16 23:10:34,-42.8794,147.3294,74.05,57,40,1.99
7,Kapaa,US,2022-01-16 23:10:34,22.0752,-159.319,79.12,73,20,1.01
8,Mar Del Plata,AR,2022-01-16 23:05:39,-38.0023,-57.5575,74.08,86,42,4.0
9,Richmond,US,2022-01-16 23:10:34,37.5538,-77.4603,36.34,94,100,5.99
10,Dumbraveni,RO,2022-01-16 23:10:35,46.2333,24.5667,22.5,69,100,0.45
11,Dikson,RU,2022-01-16 23:10:35,73.5069,80.5464,9.68,91,100,24.74
12,Muros,ES,2022-01-16 23:10:35,42.7762,-9.0603,55.24,94,100,5.39
13,Yashan,CN,2022-01-16 23:10:36,22.1975,109.9419,57.52,80,99,8.01
14,Ulagan,RU,2022-01-16 23:10:36,50.6321,87.9563,23.25,84,100,3.18
15,Faanui,PF,2022-01-16 23:10:36,-16.4833,-151.75,80.22,81,100,15.35
16,Nikolskoye,RU,2022-01-16 23:10:37,59.7035,30.7861,34.88,98,100,13.18
17,Sao Filipe,CV,2022-01-16 23:10:37,14.8961,-24.4956,71.51,71,0,3.62
18,Hamilton,US,2022-01-16 23:10:37,39.1834,-84.5333,32.63,84,100,1.99
19,Sao Jose Da Coroa Grande,BR,2022-01-16 23:10:38,-8.8978,-35.1478,79.16,76,65,8.48
20,Kruisfontein,ZA,2022-01-16 23:10:38,-34.0033,24.7314,69.89,88,12,4.9
21,Thompson,CA,2022-01-16 23:10:38,55.7435,-97.8558,-9.6,95,100,4.65
22,Atasu,KZ,2022-01-16 23:10:39,48.6814,71.6433,22.24,95,99,9.57
23,Bredasdorp,ZA,2022-01-16 23:10:39,-34.5322,20.0403,65.46,82,36,3.27
24,Avarua,CK,2022-01-16 23:10:39,-21.2078,-159.775,84.25,74,75,21.85
25,Hermanus,ZA,2022-01-16 23:10:40,-34.4187,19.2345,66.9,90,22,4.05
26,Pangnirtung,CA,2022-01-16 23:10:40,66.1451,-65.7125,-13.88,67,0,5.73
27,Noumea,NC,2022-01-16 23:10:40,-22.2763,166.4572,85.98,99,3,11.83
28,Loandjili,CG,2022-01-16 23:10:41,-4.7561,11.8578,77.29,85,93,9.33
29,Sterling,US,2022-01-16 23:10:41,39.0062,-77.4286,29.7,92,100,1.01
30,Cidreira,BR,2022-01-16 23:10:41,-30.1811,-50.2056,76.96,87,100,7.4
31,Alofi,NU,2022-01-16 23:10:42,-19.0595,-169.9187,79.97,68,37,10.87
32,Pacific Grove,US,2022-01-16 23:10:42,36.6177,-121.9166,71.28,53,80,1.99
33,Sangar,RU,2022-01-16 23:10:42,63.9242,127.4739,-49.65,100,92,0.49
34,Ostrovnoy,RU,2022-01-16 23:10:43,68.0531,39.5131,26.51,87,100,22.46
35,Upernavik,GL,2022-01-16 23:10:43,72.7868,-56.1549,-17.66,94,3,5.61
36,Bluff,NZ,2022-01-16 23:10:43,-46.6,168.3333,65.26,58,96,5.55
37,Punta Arenas,CL,2022-01-16 23:10:44,-53.15,-70.9167,48.31,46,0,19.57
38,Atuona,PF,2022-01-16 23:10:44,-9.8,-139.0333,78.42,78,88,20.62
39,Hilo,US,2022-01-16 23:07:05,19.7297,-155.09,82.13,75,0,11.5
40,Hofn,IS,2022-01-16 23:10:44,64.2539,-15.2082,29.14,92,100,7.4
41,Castro,BR,2022-01-16 23:07:18,-24.7911,-50.0119,64.06,98,84,4.54
42,Ketchikan,US,2022-01-16 23:10:45,55.3422,-131.6461,39.18,100,100,5.75
43,Rocha,UY,2022-01-16 23:10:45,-34.4833,-54.3333,74.89,87,63,8.93
44,Kavarna,BG,2022-01-16 23:10:46,43.4333,28.3333,34.57,77,29,12.1
45,Moberly,US,2022-01-16 23:10:46,39.4184,-92.4382,29.03,85,100,13.8
46,Salair,RU,2022-01-16 23:10:46,54.2312,85.7972,34.27,88,100,13.73
47,Houma,US,2022-01-16 23:11:46,29.5958,-90.7195,50.0,64,0,10.36
48,Ushuaia,AR,2022-01-16 23:10:14,-54.8,-68.3,38.86,75,75,13.8
49,Geraldton,AU,2022-01-16 23:11:47,-28.7667,114.6,71.13,82,19,9.22
50,Nanortalik,GL,2022-01-16 23:11:47,60.1432,-45.2371,25.93,77,95,15.19
51,Matara,LK,2022-01-16 23:11:47,5.9485,80.5353,73.36,90,51,9.69
52,Anadyr,RU,2022-01-16 23:11:48,64.75,177.4833,-25.1,75,0,4.47
53,Vaini,TO,2022-01-16 23:11:48,-21.2,-175.2,80.13,82,26,14.47
54,Guerrero Negro,MX,2022-01-16 23:11:48,27.9769,-114.0611,69.69,38,78,13.8
55,Provideniya,RU,2022-01-16 23:11:49,64.3833,-173.3,3.31,60,0,13.42
56,Pudozh,RU,2022-01-16 23:11:49,61.8099,36.5345,29.26,95,100,13.4
57,Port Hardy,CA,2022-01-16 23:11:49,50.6996,-127.4199,47.75,95,100,14.54
58,Horasan,TR,2022-01-16 23:11:50,40.0458,42.1728,-8.32,93,16,1.43
59,Troitsko-Pechorsk,RU,2022-01-16 23:11:50,62.7084,56.1964,-9.96,100,87,2.17
60,Albany,US,2022-01-16 23:11:50,42.6001,-73.9662,23.58,54,83,8.32
61,Qaqortoq,GL,2022-01-16 23:11:50,60.7167,-46.0333,36.1,82,100,9.64
62,Saskylakh,RU,2022-01-16 23:11:51,71.9167,114.0833,-24.34,94,9,13.38
63,Saldanha,ZA,2022-01-16 23:11:51,-33.0117,17.9442,64.06,91,45,7.27
64,Ibirataia,BR,2022-01-16 23:11:51,-14.0669,-39.6406,70.25,84,32,2.13
65,Busselton,AU,2022-01-16 23:11:52,-33.65,115.3333,58.08,69,1,13.06
66,Perumpavur,IN,2022-01-16 23:11:52,10.1333,76.4833,73.31,100,40,2.3
67,Bratsk,RU,2022-01-16 23:11:52,56.1325,101.6142,7.29,98,100,3.09
68,San-Pedro,CI,2022-01-16 23:11:53,4.7485,-6.6363,78.94,88,20,4.9
69,Hithadhoo,MV,2022-01-16 23:11:53,-0.6,73.0833,80.26,74,99,1.86
70,Coahuayana,MX,2022-01-16 23:11:53,18.7333,-103.6833,85.48,65,48,6.82
71,Cape Town,ZA,2022-01-16 23:07:33,-33.9258,18.4232,67.12,68,28,1.01
72,Camopi,GF,2022-01-16 23:11:54,3.1655,-52.3158,72.77,99,100,2.04
73,Petaluma,US,2022-01-16 23:10:59,38.2324,-122.6367,65.88,70,0,1.99
74,Calamar,CO,2022-01-16 23:11:54,10.2511,-74.9146,82.35,56,48,10.76
75,Bowen,AU,2022-01-16 23:11:54,-20.0167,148.2333,85.6,65,80,7.58
76,Goderich,CA,2022-01-16 23:10:23,43.7501,-81.7165,19.9,73,5,11.01
77,Khatanga,RU,2022-01-16 23:11:55,71.9667,102.5,-16.69,92,25,5.84
78,Inta,RU,2022-01-16 23:11:55,66.0317,60.1659,-11.69,100,98,3.69
79,Laguna,US,2022-01-16 23:11:55,38.421,-121.4238,66.43,69,0,1.01
80,Juneau,US,2022-01-16 23:11:56,58.3019,-134.4197,38.84,95,100,0.0
81,Bubaque,GW,2022-01-16 23:11:56,11.2833,-15.8333,78.42,81,89,9.98
82,Tuktoyaktuk,CA,2022-01-16 23:11:56,69.4541,-133.0374,-30.62,99,17,6.69
83,Corinto,GR,2022-01-16 23:11:57,37.9407,22.9573,44.69,80,3,2.84
84,Fort Nelson,CA,2022-01-16 23:11:57,58.8053,-122.7002,4.51,93,100,3.87
85,Hualmay,PE,2022-01-16 23:11:57,-11.0964,-77.6139,74.07,75,51,9.93
86,Mabamba,TZ,2022-01-16 23:11:58,-3.5983,30.5019,61.03,93,100,2.68
87,Airai,TL,2022-01-16 23:11:58,-8.9266,125.4092,65.14,82,100,1.86
88,Esperance,AU,2022-01-16 23:11:58,-33.8667,121.9,64.47,63,48,15.26
89,Yellowknife,CA,2022-01-16 23:11:58,62.456,-114.3525,-10.59,86,79,5.01
90,Puerto Ayora,EC,2022-01-16 23:11:59,-0.7393,-90.3518,74.44,80,99,10.0
91,Msowero,TZ,2022-01-16 23:11:59,-6.5333,37.2,70.81,93,100,1.28
92,Teya,RU,2022-01-16 23:13:00,60.3778,92.6267,-8.0,100,99,2.66
93,Mahebourg,MU,2022-01-16 23:13:00,-20.4081,57.7,78.26,88,40,3.44
94,Meulaboh,ID,2022-01-16 23:13:00,4.1363,96.1285,74.8,90,32,4.5
95,Qaanaaq,GL,2022-01-16 23:13:01,77.484,-69.3632,-6.43,59,0,7.0
96,Erzin,TR,2022-01-16 23:13:01,36.9559,36.2,36.32,46,0,6.4
97,Labuhan,ID,2022-01-16 23:13:01,-6.8844,112.2051,78.51,84,100,8.57
98,Iwaki,JP,2022-01-16 23:13:02,37.05,140.8833,42.03,60,12,7.0
99,Bayangol,RU,2022-01-16 23:13:02,50.6977,103.4656,-7.92,89,35,3.11
100,Batemans Bay,AU,2022-01-16 23:13:02,-35.7167,150.1833,83.19,58,76,5.5
101,Araouane,ML,2022-01-16 23:13:03,18.9048,-3.5265,58.89,20,96,11.41
102,Honningsvag,NO,2022-01-16 23:13:03,70.9821,25.9704,25.99,65,100,25.05
103,Arman,RU,2022-01-16 23:13:03,59.7,150.1667,-7.02,79,1,8.99
104,Hasaki,JP,2022-01-16 23:13:04,35.7333,140.8333,30.6,57,98,7.92
105,Butaritari,KI,2022-01-16 23:13:04,3.0707,172.7902,82.2,78,34,16.4
106,Arraial Do Cabo,BR,2022-01-16 23:13:04,-22.9661,-42.0278,76.86,78,0,14.97
107,Mataura,NZ,2022-01-16 23:13:05,-46.1927,168.8643,65.5,54,100,3.0
108,Ancud,CL,2022-01-16 23:13:05,-41.8697,-73.8203,52.23,56,26,10.69
109,Kushiro,JP,2022-01-16 23:13:05,42.975,144.3747,29.35,100,100,11.5
110,East London,ZA,2022-01-16 23:13:06,-33.0153,27.9116,75.24,88,49,2.59
111,Kurchum,KZ,2022-01-16 23:13:06,48.5722,83.6542,19.94,86,100,3.2
112,Kahului,US,2022-01-16 23:13:06,20.8947,-156.47,83.46,72,20,12.66
113,Coruripe,BR,2022-01-16 23:09:26,-10.1256,-36.1756,78.26,73,7,7.92
114,Pevek,RU,2022-01-16 23:13:07,69.7008,170.3133,-25.62,96,39,1.95
115,Saint-Philippe,RE,2022-01-16 23:13:07,-21.3585,55.7679,78.39,86,98,6.6
116,Bar Harbor,US,2022-01-16 23:13:07,44.3876,-68.2039,23.02,55,0,3.0
117,Lagoa,PT,2022-01-16 23:13:08,39.05,-27.9833,55.99,55,68,14.7
118,Barrow,US,2022-01-16 23:13:08,71.2906,-156.7887,-16.58,69,100,0.0
119,Souillac,MU,2022-01-16 23:13:08,-20.5167,57.5167,78.37,88,40,3.44
120,Luderitz,NA,2022-01-16 23:13:08,-26.6481,15.1594,68.31,83,0,11.21
121,Harindanga,IN,2022-01-16 23:13:09,22.0383,88.3214,57.18,45,0,7.87
122,General Cepeda,MX,2022-01-16 23:13:09,25.3833,-101.45,59.77,13,30,6.24
123,Cherskiy,RU,2022-01-16 23:13:09,68.75,161.3,-36.47,100,12,4.63
124,Moses Lake,US,2022-01-16 23:10:52,47.1301,-119.2781,36.18,86,100,3.44
125,Tiksi,RU,2022-01-16 23:13:10,71.6872,128.8694,-24.57,98,39,6.42
126,Abha,SA,2022-01-16 23:13:10,18.2164,42.5053,55.65,58,0,6.91
127,Paro,BT,2022-01-16 23:13:10,27.4305,89.4133,32.99,26,3,6.85
128,Namibe,AO,2022-01-16 23:13:11,-15.1961,12.1522,68.11,78,55,4.47
129,Maniitsoq,GL,2022-01-16 23:13:11,65.4167,-52.9,13.19,82,100,11.61
130,Broken Hill,AU,2022-01-16 23:13:12,-31.95,141.4333,75.47,44,100,16.73
131,Lebu,CL,2022-01-16 23:13:12,-37.6167,-73.65,57.31,60,73,13.73
132,Codrington,AU,2022-01-16 23:13:12,-38.2667,141.9667,65.23,73,100,12.44
133,Surt,LY,2022-01-16 23:13:13,31.2089,16.5887,57.79,74,13,7.27
134,Vila Franca Do Campo,PT,2022-01-16 23:13:13,37.7167,-25.4333,57.61,74,27,12.17
135,Ponta Do Sol,PT,2022-01-16 23:14:13,32.6667,-17.1,65.03,72,87,18.77
136,Port Alfred,ZA,2022-01-16 23:14:14,-33.5906,26.891,71.44,92,99,13.0
137,Nouadhibou,MR,2022-01-16 23:14:14,20.931,-17.0347,68.83,63,99,13.35
138,Iwanai,JP,2022-01-16 23:14:14,42.9744,140.5089,31.15,93,100,16.24
139,Dudinka,RU,2022-01-16 23:14:15,69.4058,86.1778,11.62,89,100,25.26
140,Bambous Virieux,MU,2022-01-16 23:14:15,-20.3428,57.7575,78.22,88,40,3.44
141,Mugur-Aksy,RU,2022-01-16 23:14:15,50.35,90.5,10.78,72,98,6.64
142,Shenjiamen,CN,2022-01-16 23:14:16,29.9576,122.298,46.74,76,100,8.05
143,Kiama,AU,2022-01-16 23:14:16,-34.6833,150.8667,85.24,74,19,10.0
144,Chuy,UY,2022-01-16 23:14:16,-33.6971,-53.4616,74.68,90,83,8.08
145,Bac Lieu,VN,2022-01-16 23:14:17,9.285,105.7244,75.87,82,47,15.32
146,Longyearbyen,SJ,2022-01-16 23:14:17,78.2186,15.6401,6.64,78,40,5.75
147,Vila Velha,BR,2022-01-16 23:14:17,-20.3297,-40.2925,80.55,84,40,4.0
148,Dzhebariki-Khaya,RU,2022-01-16 23:14:18,62.2167,135.8,-43.62,100,65,1.16
149,Polyarnyy,RU,2022-01-16 23:14:18,69.1989,33.4478,21.47,94,100,24.38
150,Kaitangata,NZ,2022-01-16 23:14:18,-46.2817,169.8464,65.05,67,98,1.9
151,Sao Gabriel Da Cachoeira,BR,2022-01-16 23:14:19,-0.1303,-67.0892,74.57,97,100,0.63
152,Ransang,PH,2022-01-16 23:14:19,8.9603,117.5828,77.18,82,88,4.63
153,Severo-Yeniseyskiy,RU,2022-01-16 23:14:19,60.3725,93.0408,-8.27,100,94,3.71
154,Flinders,AU,2022-01-16 23:14:20,-34.5833,150.8552,85.05,79,16,4.0
155,Muskogee,US,2022-01-16 23:14:20,35.5834,-95.3336,43.34,75,0,3.44
156,Maxixe,MZ,2022-01-16 23:11:06,-23.8597,35.3472,75.36,71,79,7.92
157,Lahad Datu,MY,2022-01-16 23:14:21,5.0268,118.327,73.74,94,94,5.21
158,Nahan,IN,2022-01-16 23:14:21,30.55,77.3,47.5,60,84,1.63
159,Sinnamary,GF,2022-01-16 23:14:21,5.3833,-52.95,77.31,85,96,11.72
160,Hovd,MN,2022-01-16 23:14:22,48.0056,91.6419,3.16,81,90,4.16
161,Clyde River,CA,2022-01-16 23:14:22,70.4692,-68.5914,-7.37,77,75,21.85
162,Gubbi,IN,2022-01-16 23:14:22,13.3106,76.9444,65.86,80,88,6.2
163,Cap Malheureux,MU,2022-01-16 23:14:23,-19.9842,57.6142,78.48,84,13,4.25
164,Antipovka,RU,2022-01-16 23:14:23,49.8299,45.3122,12.76,95,19,9.55
165,Cumpas,MX,2022-01-16 23:14:23,29.9833,-109.7833,72.63,21,8,2.98
166,Sept-Iles,CA,2022-01-16 23:14:23,50.2001,-66.3821,11.05,63,75,11.99
167,Blyth,GB,2022-01-16 23:14:24,55.1271,-1.5086,43.09,82,0,4.0
168,Coquimbo,CL,2022-01-16 23:14:24,-29.9533,-71.3436,67.73,68,0,12.66
169,Svetlogorsk,BY,2022-01-16 23:14:24,52.6333,29.7333,28.72,80,96,13.8
170,Tuatapere,NZ,2022-01-16 23:14:25,-46.1333,167.6833,75.81,51,90,6.11
171,Sistranda,NO,2022-01-16 23:14:25,63.7256,8.834,33.76,75,100,51.67
172,Ozinki,RU,2022-01-16 23:14:25,51.1786,49.6769,2.21,99,67,5.41
173,Kununurra,AU,2022-01-16 23:14:26,-15.7667,128.7333,80.58,89,40,0.0
174,Mangochi,MW,2022-01-16 23:14:26,-14.4782,35.2645,70.29,87,95,2.75
175,Balezino,RU,2022-01-16 23:14:26,57.9796,53.0106,4.69,98,99,8.1
176,Acajutla,SV,2022-01-16 23:14:27,13.5928,-89.8275,93.54,65,8,6.58
177,Ribeira Grande,PT,2022-01-16 23:14:27,38.5167,-28.7,56.5,66,26,18.68
178,Gorin,RU,2022-01-16 23:14:27,51.1983,136.6669,5.7,95,100,8.05
179,Olonets,RU,2022-01-16 23:14:28,60.9847,32.9698,32.74,98,100,16.24
180,Barahona,DO,2022-01-16 23:15:28,18.2085,-71.1008,76.82,78,20,6.91
181,Bhind,IN,2022-01-16 23:15:28,26.5642,78.7883,44.33,52,0,2.17
182,Letlhakane,BW,2022-01-16 23:15:29,-21.4167,25.5833,75.0,59,79,6.11
183,Port Lincoln,AU,2022-01-16 23:15:15,-34.7333,135.8667,66.56,70,100,13.09
184,Urumqi,CN,2022-01-16 23:12:02,43.801,87.6005,4.15,85,9,0.0
185,Aswan,EG,2022-01-16 23:15:30,24.0934,32.907,49.14,41,0,7.76
186,Sofikon,GR,2022-01-16 23:15:31,37.8,23.05,38.32,80,2,2.57
187,Georgetown,MY,2022-01-16 23:15:14,5.4112,100.3354,79.9,84,20,0.0
188,Sun City West,US,2022-01-16 23:12:07,33.662,-112.3413,73.98,17,0,1.99
189,Gat,IL,2022-01-16 23:15:31,31.61,34.7642,46.4,100,79,6.17
190,Noyon,FR,2022-01-16 23:15:31,49.5833,3.0,45.12,96,94,2.57
191,Acapulco,MX,2022-01-16 23:12:45,16.8634,-99.8901,84.02,65,40,4.61
192,Dangriga,BZ,2022-01-16 23:15:32,16.9692,-88.2321,75.16,82,14,13.56
193,Ilulissat,GL,2022-01-16 23:15:32,69.2167,-51.1,3.22,55,40,6.91
194,Komsomolskiy,UZ,2022-01-16 23:15:32,40.4272,71.7189,41.72,48,96,9.22
195,Mao,ES,2022-01-16 23:15:33,39.8885,4.2658,43.36,75,0,5.75
196,Khorramabad,IR,2022-01-16 23:15:33,33.4878,48.3558,44.22,53,75,6.91
197,Atascadero,US,2022-01-16 23:15:34,35.4894,-120.6707,68.63,50,44,1.01
198,Monte Alegre,BR,2022-01-16 23:15:34,-2.0078,-54.0692,79.25,77,21,3.38
199,Uzice,RS,2022-01-16 23:15:35,43.8586,19.8488,16.43,89,18,4.05
200,Camacha,PT,2022-01-16 23:15:35,33.0833,-16.3333,62.02,68,20,21.85
201,Ayan,RU,2022-01-16 23:15:35,56.45,138.1667,-7.74,79,44,10.16
202,Bathsheba,BB,2022-01-16 23:15:36,13.2167,-59.5167,77.61,69,20,17.27
203,Husavik,IS,2022-01-16 23:15:36,66.0449,-17.3389,21.11,93,100,10.16
204,Atagay,RU,2022-01-16 23:15:36,55.1033,99.3875,11.41,95,98,2.57
205,Baherden,TM,2022-01-16 23:15:37,38.4362,57.4316,36.0,88,30,0.76
206,Maniwaki,CA,2022-01-16 23:15:37,46.3834,-75.966,0.14,65,5,1.14
207,San Felipe,VE,2022-01-16 23:15:37,10.3399,-68.7425,73.24,89,60,6.17
208,Pascagoula,US,2022-01-16 23:15:38,30.3658,-88.5561,45.03,76,100,6.91
209,Ambilobe,MG,2022-01-16 23:15:38,-13.2,49.05,76.46,93,98,2.19
210,New Norfolk,AU,2022-01-16 23:15:38,-42.7826,147.0587,73.71,42,11,5.01
211,Chokurdakh,RU,2022-01-16 23:15:39,70.6333,147.9167,-41.01,99,85,6.53
212,Kodiak,US,2022-01-16 23:15:39,57.79,-152.4072,31.51,55,0,5.75
213,Praia Da Vitoria,PT,2022-01-16 23:15:39,38.7333,-27.0667,55.65,71,75,12.26
214,Enshi,CN,2022-01-16 23:15:40,30.3,109.4833,42.19,95,100,0.72
215,Rio Grande,BR,2022-01-16 23:15:40,-32.035,-52.0986,75.94,95,95,13.53
216,Denpasar,ID,2022-01-16 23:15:40,-8.65,115.2167,79.18,83,99,2.71
217,Norman Wells,CA,2022-01-16 23:15:41,65.282,-126.8329,-29.16,68,20,2.3
218,Lorengau,PG,2022-01-16 23:15:41,-2.0226,147.2712,82.45,79,96,2.73
219,Koroni,GR,2022-01-16 23:15:41,36.8,21.95,51.08,73,85,4.38
220,Benguela,AO,2022-01-16 23:15:42,-12.5763,13.4055,74.03,81,49,5.53
221,Chilca,PE,2022-01-16 23:15:42,-12.5211,-76.7372,76.08,78,37,7.09
222,Emba,KZ,2022-01-16 23:15:43,48.8264,58.1442,23.0,94,99,15.57
223,Nioro,GM,2022-01-16 23:15:43,13.35,-15.75,78.21,54,100,5.5
224,Yumen,CN,2022-01-16 23:15:43,40.2833,97.2,20.62,50,66,4.68
225,Plettenberg Bay,ZA,2022-01-16 23:15:44,-34.0527,23.3716,68.11,83,24,2.39
226,Nova Odesa,UA,2022-01-16 23:15:44,47.3078,31.7851,29.68,76,22,7.99
227,Aklavik,CA,2022-01-16 23:15:44,68.2191,-135.0107,-28.37,100,72,6.33
228,Naryan-Mar,RU,2022-01-16 23:15:45,67.6713,53.087,-5.42,100,60,8.63
229,Agoo,PH,2022-01-16 23:16:45,16.0833,120.1,71.87,71,24,11.54
230,Los Llanos De Aridane,ES,2022-01-16 23:16:45,28.6585,-17.9182,67.12,42,98,5.01
231,Sauda,NO,2022-01-16 23:16:46,59.6506,6.3542,35.02,97,100,18.3
232,Harlingen,US,2022-01-16 23:16:46,26.1906,-97.6961,67.33,18,0,4.61
233,Dingle,PH,2022-01-16 23:16:46,10.9995,122.6711,72.5,92,99,9.69
234,Marsh Harbour,BS,2022-01-16 23:16:47,26.5412,-77.0636,74.17,73,85,26.93
235,Saint George,US,2022-01-16 23:16:47,37.1041,-113.5841,61.36,34,0,1.99
236,Severo-Kurilsk,RU,2022-01-16 23:16:47,50.6789,156.125,25.74,65,18,10.42
237,Banepa,NP,2022-01-16 23:16:47,27.6298,85.5214,41.32,100,75,2.3
238,Leningradskiy,RU,2022-01-16 23:16:48,69.3833,178.4167,-26.23,96,24,4.63
239,Palmer,US,2022-01-16 23:16:48,42.1584,-72.3287,24.85,58,100,0.0
240,Santo Antonio Do Ica,BR,2022-01-16 23:16:48,-3.1022,-67.9397,75.4,95,95,1.16
241,Lompoc,US,2022-01-16 23:14:07,34.6391,-120.4579,72.57,53,100,8.05
242,Limbang,MY,2022-01-16 23:16:49,4.75,115.0,79.11,93,99,2.24
243,Vilhena,BR,2022-01-16 23:16:49,-12.7406,-60.1458,80.82,65,20,5.75
244,Isangel,VU,2022-01-16 23:16:50,-19.55,169.2667,86.11,70,20,2.3
245,Dankov,RU,2022-01-16 23:16:50,53.2515,39.1555,14.34,96,52,9.48
246,Carroll,US,2022-01-16 23:16:50,39.5501,-77.0164,28.17,85,100,5.99
247,Tasiilaq,GL,2022-01-16 23:16:50,65.6145,-37.6368,19.56,94,100,10.83
248,Dakar,SN,2022-01-16 23:12:06,14.6937,-17.4441,74.28,84,94,14.5
249,Simi,SL,2022-01-16 23:16:51,9.5667,-12.35,78.51,70,90,5.95
250,Oksfjord,NO,2022-01-16 23:16:51,70.2396,22.3479,25.72,89,100,15.99
251,Vardo,NO,2022-01-16 23:16:52,70.3705,31.1107,23.2,62,100,28.88
252,Narasannapeta,IN,2022-01-16 23:16:52,18.4167,84.05,66.69,85,7,5.88
253,Paulinia,BR,2022-01-16 23:16:53,-22.7611,-47.1542,77.94,86,74,1.28
254,Talnakh,RU,2022-01-16 23:16:53,69.4865,88.3972,11.21,87,100,17.43
255,Villamontes,BO,2022-01-16 23:16:53,-21.25,-63.5,87.67,46,23,10.47
256,Viru,PE,2022-01-16 23:16:54,-8.4167,-78.75,69.1,73,91,5.86
257,Whyalla,AU,2022-01-16 23:16:54,-33.0333,137.5833,69.31,65,100,16.22
258,Sagua La Grande,CU,2022-01-16 23:16:54,22.8067,-80.0756,67.19,78,68,16.4
259,Mount Isa,AU,2022-01-16 23:16:55,-20.7333,139.5,92.97,33,100,13.8
260,Opuwo,NA,2022-01-16 23:16:55,-18.0607,13.84,65.8,50,62,6.11
261,Nichinan,JP,2022-01-16 23:16:56,31.6,131.3667,44.28,67,99,7.81
262,Wewak,PG,2022-01-16 23:16:56,-3.5534,143.6268,78.24,89,99,8.08
263,Duluth,US,2022-01-16 23:13:04,46.7833,-92.1066,25.29,80,100,1.01
264,Bethel,US,2022-01-16 23:15:23,41.3712,-73.414,31.59,78,75,1.99
265,Mount Gambier,AU,2022-01-16 23:16:56,-37.8333,140.7667,65.05,62,95,10.51
266,Becerril,CO,2022-01-16 23:16:57,9.7041,-73.2793,87.39,42,68,4.32
267,Jiangyou,CN,2022-01-16 23:16:57,31.7667,104.7167,43.61,78,98,0.6
268,Cheyenne,US,2022-01-16 23:16:58,41.14,-104.8203,44.19,48,0,12.66
269,Payo,ID,2022-01-16 23:16:58,-3.7508,103.6372,71.82,98,99,2.04
270,Nikolayevsk-Na-Amure,RU,2022-01-16 23:16:58,53.1406,140.73,-0.87,96,100,3.85
271,Sola,VU,2022-01-16 23:16:59,-13.8833,167.55,82.47,74,50,5.48
272,Bitkine,TD,2022-01-16 23:16:59,11.9801,18.2138,67.41,22,22,8.37
273,Qujing,CN,2022-01-16 23:17:00,25.4833,103.7833,37.11,97,100,7.58
274,Raudeberg,NO,2022-01-16 23:18:00,61.9875,5.1352,33.19,81,100,5.99
275,Tiznit,MA,2022-01-16 23:18:00,29.5833,-9.5,53.49,33,35,7.16
276,Buin,CL,2022-01-16 23:18:01,-33.7333,-70.75,75.74,38,24,9.53
277,Lavrentiya,RU,2022-01-16 23:18:01,65.5833,-171.0,-14.87,94,80,8.93
278,Lazaro Cardenas,MX,2022-01-16 23:18:01,17.9583,-102.2,81.54,66,10,8.9
279,Deputatskiy,RU,2022-01-16 23:18:02,69.3,139.9,-35.0,98,20,4.45
280,Sabang,ID,2022-01-16 23:18:02,5.8933,95.3214,81.45,75,81,15.1
281,Roma,US,2022-01-16 23:13:53,43.2128,-75.4557,27.9,54,0,10.36
282,Carnarvon,AU,2022-01-16 23:18:02,-24.8667,113.6333,75.27,78,100,17.27
283,Estacion Coahuila,MX,2022-01-16 23:18:03,32.1939,-115.0017,77.97,14,90,7.85
284,Bulungu,CD,2022-01-16 23:18:03,-4.55,18.6,69.37,98,91,1.28
285,Gizo,SB,2022-01-16 23:18:03,-8.103,156.8419,82.67,75,97,4.74
286,Zarand,IR,2022-01-16 23:18:04,30.8127,56.564,45.09,71,7,20.02
287,Pisco,PE,2022-01-16 23:18:04,-13.7,-76.2167,75.25,78,0,21.85
288,Half Moon Bay,US,2022-01-16 23:18:04,37.4636,-122.4286,68.47,58,75,3.44
289,Kavaratti,IN,2022-01-16 23:18:05,10.5669,72.642,79.03,70,38,4.12
290,Mastic Beach,US,2022-01-16 23:18:06,40.7668,-72.8521,37.98,74,75,1.01
291,Latung,PH,2022-01-16 23:18:06,5.5,120.8833,80.89,74,100,6.24
292,Nemuro,JP,2022-01-16 23:18:07,43.3236,145.575,32.31,98,100,19.04
293,Susanville,US,2022-01-16 23:18:04,40.4163,-120.653,39.09,77,0,1.01
294,Port-Gentil,GA,2022-01-16 23:18:07,-0.7193,8.7815,78.26,84,95,8.99
295,Haines Junction,CA,2022-01-16 23:18:07,60.7522,-137.5108,30.15,74,100,5.75
296,Muramvya,BI,2022-01-16 23:18:08,-3.2682,29.6079,54.81,91,100,0.4
297,Cordoba,AR,2022-01-16 23:18:08,-31.4135,-64.1811,83.59,65,20,7.0
298,Leshukonskoye,RU,2022-01-16 23:18:09,64.8989,45.7622,14.81,93,100,10.8
299,Madison,US,2022-01-16 23:18:07,34.7334,-86.5667,35.28,93,100,1.01
300,Dhidhdhoo,MV,2022-01-16 23:18:09,6.8833,73.1,81.23,73,15,4.72
301,The Pas,CA,2022-01-16 23:15:15,53.8251,-101.2541,6.82,85,100,3.44
302,Jalu,LY,2022-01-16 23:18:09,29.0331,21.5482,50.92,83,41,4.92
303,Noyabrsk,RU,2022-01-16 23:18:10,63.1994,75.4507,15.6,94,100,19.91
304,Cody,US,2022-01-16 23:16:49,44.5263,-109.0565,45.64,40,0,10.36
305,Narsaq,GL,2022-01-16 23:18:10,60.9167,-46.05,35.82,89,100,8.86
306,Riyadh,SA,2022-01-16 23:18:11,24.6877,46.7219,53.74,30,0,5.1
307,Monteagudo,BO,2022-01-16 23:18:11,-19.8167,-63.9833,83.98,72,67,1.97
308,Denizli,TR,2022-01-16 23:18:11,37.8402,29.0698,27.45,58,0,1.45
309,Khartoum,SD,2022-01-16 23:18:12,15.5518,32.5324,68.02,21,0,16.44
310,Brownsville,US,2022-01-16 23:17:11,25.9018,-97.4975,66.15,28,0,1.01
311,Buchanan,LR,2022-01-16 23:18:12,5.8808,-10.0467,79.61,84,89,4.05
312,Wamba,NG,2022-01-16 23:18:12,8.9333,8.6,76.21,17,91,4.36
313,Vanimo,PG,2022-01-16 23:18:13,-2.6741,141.3028,79.88,86,93,3.2
314,Smithers,CA,2022-01-16 23:18:13,54.7804,-127.1743,32.32,100,100,2.3
315,Dabakala,CI,2022-01-16 23:18:13,8.3667,-4.4333,80.6,19,77,5.77
316,Izhma,RU,2022-01-16 23:18:14,65.0083,53.9113,-9.24,100,99,3.98
317,Antofagasta,CL,2022-01-16 23:17:40,-23.65,-70.4,72.21,49,5,6.02
318,Dublin,US,2022-01-16 23:15:21,37.7021,-121.9358,66.51,61,100,3.0
319,Nizwa,OM,2022-01-16 23:19:14,22.9333,57.5333,61.9,84,29,3.06
320,Palu,ID,2022-01-16 23:19:14,-0.8917,119.8707,74.84,90,100,2.15
321,Touros,BR,2022-01-16 23:17:06,-5.1989,-35.4608,81.5,75,62,12.53
322,Kavieng,PG,2022-01-16 23:19:15,-2.5744,150.7967,82.27,76,98,3.15
323,Ewa Beach,US,2022-01-16 23:17:25,21.3156,-158.0072,81.01,61,0,5.99
324,Eureka,US,2022-01-16 23:19:15,40.8021,-124.1637,55.13,80,46,4.0
325,Bousso,TD,2022-01-16 23:19:16,10.4795,16.7117,70.21,22,30,7.74
326,Belyy Yar,RU,2022-01-16 23:19:16,53.6039,91.3903,10.29,85,40,4.47
327,San Cristobal,VE,2022-01-16 23:19:16,7.7669,-72.225,73.58,64,38,1.77
328,Rabo De Peixe,PT,2022-01-16 23:19:17,37.8,-25.5833,56.71,91,20,21.85
329,Vagay,RU,2022-01-16 23:19:17,57.9375,69.0217,23.77,92,100,16.89
330,Buluang,PH,2022-01-16 23:19:18,13.3068,123.3425,70.93,88,100,4.94
331,Minggang,CN,2022-01-16 23:19:18,32.4586,114.0486,38.77,75,96,5.17
332,Salalah,OM,2022-01-16 23:19:18,17.0151,54.0924,71.69,73,20,1.14
333,San Isidro,PE,2022-01-16 23:19:19,-12.1167,-77.05,74.5,76,0,1.99
334,Ikongo,MG,2022-01-16 23:19:19,-21.8833,47.4333,69.1,99,74,1.28
335,Itarema,BR,2022-01-16 23:19:19,-2.9248,-39.9167,80.17,77,23,10.87
336,Mahajanga,MG,2022-01-16 23:19:20,-15.7167,46.3167,77.02,94,40,4.61
337,Flin Flon,CA,2022-01-16 23:19:20,54.7682,-101.865,4.84,78,100,5.75
338,Chabahar,IR,2022-01-16 23:19:21,25.2919,60.643,70.2,70,76,10.07
339,Saint-Augustin,CA,2022-01-16 23:19:21,51.226,-58.6502,-1.88,82,42,9.15
340,Kidal,ML,2022-01-16 23:19:22,18.4411,1.4078,61.23,19,62,13.02
341,Kaeo,NZ,2022-01-16 23:19:22,-35.1,173.7833,80.33,55,0,4.43
342,Bonavista,CA,2022-01-16 23:19:22,48.6499,-53.1147,23.11,70,100,23.8
343,Shimoda,JP,2022-01-16 23:19:23,34.6667,138.95,50.36,65,74,24.83
344,Mitsamiouli,KM,2022-01-16 23:19:23,-11.3847,43.2844,82.24,75,32,4.16
345,Malayal,PH,2022-01-16 23:19:23,7.208,121.942,80.4,85,100,5.99
346,Udachnyy,RU,2022-01-16 23:19:23,66.4167,112.4,-15.56,82,98,9.04
347,Leiva,CO,2022-01-16 23:19:24,1.9339,-77.3025,65.16,92,80,4.92
348,Barranca,PE,2022-01-16 23:19:24,-10.75,-77.7667,72.97,75,32,7.7
349,Sorland,NO,2022-01-16 23:19:24,67.667,12.6934,36.88,66,100,30.51
350,Sakaiminato,JP,2022-01-16 23:19:25,35.55,133.2333,40.98,65,75,13.8
351,Norden,DE,2022-01-16 23:19:25,53.6,7.2,43.95,80,91,22.82
352,Avera,US,2022-01-16 23:19:26,33.194,-82.5271,43.48,96,97,13.62
353,Andenes,NO,2022-01-16 23:19:26,69.3143,16.1194,31.98,64,20,19.57
354,Hailar,CN,2022-01-16 23:19:26,49.2,119.7,-28.97,100,33,2.15
355,Haradok,BY,2022-01-16 23:19:27,55.4624,29.9816,27.86,94,100,15.75
356,Porto Novo,BJ,2022-01-16 23:19:27,6.4965,2.6036,80.42,81,94,5.39
357,Faya,SA,2022-01-16 23:19:27,18.3851,42.4509,55.92,91,40,5.66
358,Valle De Allende,MX,2022-01-16 23:19:28,26.9333,-105.4,62.65,21,82,3.8
359,Kapoeta,SS,2022-01-16 23:19:28,4.7717,33.5903,84.49,37,87,5.39
360,Lima,PE,2022-01-16 23:17:06,-12.0432,-77.0282,73.38,75,0,1.99
361,Gondar,ET,2022-01-16 23:19:28,12.6,37.4667,59.61,49,52,3.85
362,Villaviciosa,ES,2022-01-16 23:20:29,43.4813,-5.4357,47.41,77,38,4.65
363,Agirish,RU,2022-01-16 23:20:29,61.9247,63.0231,-4.74,100,100,5.84
364,Akureyri,IS,2022-01-16 23:20:29,65.6835,-18.0878,21.13,93,100,5.75
365,Pocone,BR,2022-01-16 23:20:29,-16.2567,-56.6228,82.65,59,98,6.06
366,Kuching,MY,2022-01-16 23:17:39,1.55,110.3333,75.42,100,40,2.3
367,Prince Rupert,CA,2022-01-16 23:20:30,54.3161,-130.3201,44.69,93,100,6.91
368,Puerto Padre,CU,2022-01-16 23:20:30,21.195,-76.6028,81.61,65,25,4.9
369,Careiro Da Varzea,BR,2022-01-16 23:20:31,-3.2003,-59.8119,81.21,86,87,0.34
370,Henties Bay,NA,2022-01-16 23:20:31,-22.116,14.2845,67.86,86,87,6.42
371,Torbay,CA,2022-01-16 23:20:31,47.6666,-52.7314,22.75,71,75,19.57
372,Gogrial,SS,2022-01-16 23:20:32,8.5332,28.1004,86.09,34,92,5.77
373,Fairbanks,US,2022-01-16 23:20:02,64.8378,-147.7164,5.59,84,100,0.0
374,Waipawa,NZ,2022-01-16 23:20:32,-41.4122,175.5153,66.31,68,10,11.1
375,Mayor Pablo Lagerenza,PY,2022-01-16 23:20:32,-19.9309,-60.7718,94.78,30,6,13.24
376,Beltangadi,IN,2022-01-16 23:20:33,13.9833,75.3,66.54,80,94,6.42
377,Tabou,CI,2022-01-16 23:20:33,4.423,-7.3528,79.3,85,4,6.06
378,Victoria,HK,2022-01-16 23:16:11,22.2855,114.1577,64.45,84,76,1.99
379,Bonnyville,CA,2022-01-16 23:20:33,54.2668,-110.735,30.0,97,99,2.57
380,Pointe Michel,DM,2022-01-16 23:20:34,15.25,-61.3833,73.69,70,10,12.46
381,Devils Lake,US,2022-01-16 23:20:34,48.1128,-98.8651,26.71,90,100,4.61
382,Ojinaga,MX,2022-01-16 23:20:34,29.5667,-104.4167,64.42,18,0,0.0
383,Tarko-Sale,RU,2022-01-16 23:20:35,64.9225,77.785,12.02,94,100,17.52
384,Chodavaram,IN,2022-01-16 23:20:35,17.8333,82.95,71.44,89,15,3.11
385,Iquitos,PE,2022-01-16 23:20:35,-3.7481,-73.2472,84.24,74,40,3.44
386,Kralendijk,BQ,2022-01-16 23:17:19,12.15,-68.2667,80.58,78,75,13.8
387,Nara,JP,2022-01-16 23:20:36,34.6851,135.8049,45.68,58,98,4.83
388,Beirut,LB,2022-01-16 23:20:36,33.8889,35.4944,45.34,42,0,5.75
389,Ouesso,CG,2022-01-16 23:20:36,1.6136,16.0517,73.02,74,93,2.1
390,Iqaluit,CA,2022-01-16 23:20:37,63.7506,-68.5145,-25.87,74,75,2.3
391,Bridlington,GB,2022-01-16 23:20:37,54.0831,-0.1919,39.38,84,16,11.99
392,Namatanai,PG,2022-01-16 23:20:37,-3.6667,152.4333,82.85,73,100,3.06
393,Qasigiannguit,GL,2022-01-16 23:20:38,68.8193,-51.1922,3.45,78,100,4.63
394,Samarai,PG,2022-01-16 23:20:38,-10.6167,150.6667,82.83,73,76,8.01
395,Kalat,PK,2022-01-16 23:20:38,29.0225,66.5916,44.22,71,100,6.89
396,Quelimane,MZ,2022-01-16 23:20:39,-17.8786,36.8883,78.75,100,75,3.44
397,San Angelo,US,2022-01-16 23:19:27,31.4638,-100.437,71.82,10,0,3.0
398,Qui Nhon,VN,2022-01-16 23:20:39,13.7667,109.2333,70.38,91,81,7.99
399,Mangit,UZ,2022-01-16 23:20:39,40.5971,70.9607,42.08,41,99,2.62
400,Hobyo,SO,2022-01-16 23:20:40,5.3505,48.5268,76.84,75,99,14.03
401,Sinazongwe,ZM,2022-01-16 23:20:40,-17.2614,27.4618,76.69,71,98,3.11
402,Palmerston,AU,2022-01-16 23:20:40,-12.486,130.9833,82.38,90,75,2.3
403,Karatau,KZ,2022-01-16 23:20:41,43.1667,70.4667,38.97,97,100,8.03
404,Isiro,CD,2022-01-16 23:20:41,2.7739,27.616,66.34,99,100,0.96
405,San Patricio,US,2022-01-16 23:20:41,28.017,-97.5169,69.78,16,0,5.84
406,Rovereto,IT,2022-01-16 23:20:42,45.8896,11.0387,44.37,65,35,4.32
407,Zihuatanejo,MX,2022-01-16 23:20:42,17.6333,-101.55,86.09,66,40,9.22
408,San Andres,CO,2022-01-16 23:16:15,12.5847,-81.7006,80.62,69,75,8.05
409,Cairns,AU,2022-01-16 23:20:42,-16.9167,145.7667,89.11,76,65,2.3
410,Colac,AU,2022-01-16 23:20:43,-38.3333,143.5833,68.02,56,100,8.41
411,Bayir,TR,2022-01-16 23:21:43,37.2687,28.2167,36.12,56,0,3.76
412,Olinda,BR,2022-01-16 23:21:43,-8.0089,-34.8553,80.33,83,40,12.66
413,Tagusao,PH,2022-01-16 23:21:44,9.1924,117.8141,77.27,81,99,5.88
414,Korhogo,CI,2022-01-16 23:21:44,9.45,-5.6333,75.56,22,97,5.55
415,Conde,BR,2022-01-16 23:21:44,-7.2597,-34.9075,80.06,83,20,9.22
416,Klobuck,PL,2022-01-16 23:21:45,50.9008,18.9367,33.26,97,100,16.98
417,Novonikolayevskiy,RU,2022-01-16 23:21:45,50.9738,42.3649,18.79,88,95,6.35
418,Ejido,VE,2022-01-16 23:21:45,8.5514,-71.2375,68.52,90,76,2.26
419,Pali,IN,2022-01-16 23:21:45,25.7667,73.3333,54.39,51,1,7.63
420,Puri,IN,2022-01-16 23:21:46,19.8,85.85,64.92,70,0,8.59
421,Macusani,PE,2022-01-16 23:21:46,-14.0833,-70.4333,40.05,84,80,3.71
422,Ahipara,NZ,2022-01-16 23:21:46,-35.1667,173.1667,73.11,60,1,11.77
423,Ust-Nera,RU,2022-01-16 23:21:47,64.5667,143.2,-34.58,91,16,1.07
424,Wodonga,AU,2022-01-16 23:21:47,-36.1167,146.8833,80.28,94,40,3.44
425,Karpathos,GR,2022-01-16 23:21:48,35.507,27.2132,46.36,49,5,6.91
426,Vao,NC,2022-01-16 23:21:48,-22.6667,167.4833,76.12,75,27,17.47
427,Gamba,GA,2022-01-16 23:21:48,-2.65,10.0,75.45,91,94,5.17
428,Nizhniy Odes,RU,2022-01-16 23:21:49,63.6445,54.856,-8.99,100,94,2.59
429,Liverpool,GB,2022-01-16 23:21:49,53.4106,-2.9779,45.72,82,75,3.0
430,Fayaoue,NC,2022-01-16 23:21:50,-20.65,166.5333,79.27,68,2,12.3
431,Bengkulu,ID,2022-01-16 23:21:50,-3.8004,102.2655,74.73,89,66,4.27
432,Ust-Omchug,RU,2022-01-16 23:21:50,61.15,149.6333,-35.63,98,41,2.46
433,Raga,SS,2022-01-16 23:21:50,8.4596,25.678,81.68,47,100,0.49
434,Nguruka,TZ,2022-01-16 23:21:51,-5.1092,31.0419,63.41,95,100,2.46
435,Dwarka,IN,2022-01-16 23:21:51,22.2394,68.9678,68.14,60,1,14.23
436,Port Blair,IN,2022-01-16 23:21:51,11.6667,92.75,78.04,71,68,10.16
437,Seoul,KR,2022-01-16 23:18:42,37.5683,126.9778,17.04,76,0,1.14
438,Karwar,IN,2022-01-16 23:21:52,14.8,74.1333,73.31,67,86,4.85
439,Akhtanizovskaya,RU,2022-01-16 23:21:52,45.32,37.1,34.27,72,96,11.88
440,Pinheiro Machado,BR,2022-01-16 23:21:52,-31.5783,-53.3811,73.87,85,66,13.96
441,Cayenne,GF,2022-01-16 23:21:53,4.9333,-52.3333,80.1,84,20,7.0
442,Porbandar,IN,2022-01-16 23:21:53,21.6422,69.6093,66.81,52,1,12.33
443,Teahupoo,PF,2022-01-16 23:21:53,-17.8333,-149.2667,78.76,79,100,17.56
444,Asau,RO,2022-01-16 23:21:54,46.4333,26.4,24.28,60,100,7.63
445,Sipoo,FI,2022-01-16 23:21:54,60.3775,25.2691,31.87,94,20,9.22
446,Skjervoy,NO,2022-01-16 23:21:54,70.0311,20.9714,29.05,74,100,29.1
447,Derendingen,CH,2022-01-16 23:21:55,47.1985,7.5884,33.48,95,75,3.44
448,Beringovskiy,RU,2022-01-16 23:21:55,63.05,179.3167,-14.13,87,23,18.7
449,Tessalit,ML,2022-01-16 23:21:55,20.1986,1.0114,58.82,21,38,11.56
450,Labytnangi,RU,2022-01-16 23:21:55,66.6572,66.4183,-16.11,100,83,2.8
451,Tynda,RU,2022-01-16 23:21:56,55.1667,124.7167,-32.46,98,25,2.62
452,Adrar,MR,2022-01-16 23:21:56,20.5022,-10.0711,63.5,16,100,19.1
453,Maun,BW,2022-01-16 23:21:56,-19.9833,23.4167,69.76,100,0,6.91
454,Lasa,IT,2022-01-16 23:21:56,46.6166,10.7002,38.28,85,23,6.8
455,Grindavik,IS,2022-01-16 23:21:57,63.8424,-22.4338,43.27,100,100,26.46
456,Ambanja,MG,2022-01-16 23:21:57,-13.6833,48.45,76.1,92,100,2.8
457,Villazon,BO,2022-01-16 23:21:57,-22.0866,-65.5942,54.1,62,87,8.93
458,Hermosillo,MX,2022-01-16 23:22:57,29.0667,-110.9667,84.11,16,20,3.0
459,Acari,PE,2022-01-16 23:22:58,-15.4311,-74.6158,74.91,81,90,7.65
460,Mahibadhoo,MV,2022-01-16 23:22:58,3.7833,72.9667,81.9,76,100,12.71
461,Krasnoselkup,RU,2022-01-16 23:22:58,65.7,82.4667,9.81,91,100,16.91
462,Mangai,CD,2022-01-16 23:22:59,-4.05,19.5333,69.91,99,100,2.89
463,Dunedin,NZ,2022-01-16 23:22:59,-45.8742,170.5036,69.8,71,100,5.01
464,Rivadavia,AR,2022-01-16 23:20:42,-33.1905,-68.4608,86.47,17,0,14.43
465,Mecca,SA,2022-01-16 23:21:22,21.4267,39.8261,62.22,57,1,6.96
466,Vilyuysk,RU,2022-01-16 23:22:59,63.7553,121.6247,-47.06,100,63,2.13
467,Itaituba,BR,2022-01-16 23:23:00,-4.2761,-55.9836,82.56,74,40,9.22
468,Moyale,KE,2022-01-16 23:23:00,3.5167,39.0584,74.32,49,81,3.13
469,Port Hedland,AU,2022-01-16 23:23:00,-20.3167,118.5667,82.45,78,100,14.97
470,Karaton,ID,2022-01-16 23:23:01,-6.3424,106.1045,75.36,94,36,1.97
471,Hirado,JP,2022-01-16 23:23:01,33.3597,129.5531,44.38,59,100,11.43
472,Sunrise Manor,US,2022-01-16 23:23:02,36.2111,-115.0731,65.25,19,0,3.44
473,Sulphur,US,2022-01-16 23:23:02,30.2366,-93.3774,53.58,49,0,4.61
474,Kalabo,ZM,2022-01-16 23:23:02,-14.97,22.6814,70.9,48,69,4.14
475,Carahue,CL,2022-01-16 23:23:03,-38.7,-73.1667,55.6,50,47,7.87
476,Homer,US,2022-01-16 23:22:09,59.6425,-151.5483,29.05,74,0,0.0
477,Tam Ky,VN,2022-01-16 23:23:03,15.5667,108.4833,71.58,93,68,3.58
478,Wajir,KE,2022-01-16 23:23:03,1.7471,40.0573,80.69,60,26,13.87
479,Nabire,ID,2022-01-16 23:23:04,-3.3667,135.4833,77.81,89,100,1.59
480,Mlonggo,ID,2022-01-16 23:23:04,-6.5333,110.7,72.52,87,100,5.41
481,Parrita,CR,2022-01-16 23:23:04,9.5201,-84.3225,85.77,74,30,4.07
482,El Retorno,CO,2022-01-16 23:23:04,2.3302,-72.6276,77.68,76,99,3.65
483,Dossor,KZ,2022-01-16 23:23:05,47.5272,52.9811,27.88,86,97,15.1
484,Thessalon,CA,2022-01-16 23:23:05,46.2501,-83.5666,25.29,83,100,5.68
485,Padang,ID,2022-01-16 23:23:06,-0.9492,100.3543,76.68,86,60,4.14
486,Meridian,US,2022-01-16 23:21:37,43.6121,-116.3915,38.32,73,20,1.99
487,Kutum,SD,2022-01-16 23:23:06,14.2,24.6667,59.79,28,2,8.61
488,Dillon,US,2022-01-16 23:23:06,34.4166,-79.3712,46.29,94,81,9.98
489,Asyut,EG,2022-01-16 23:23:07,27.181,31.1837,48.38,55,100,11.23
490,Opelousas,US,2022-01-16 23:23:07,30.5335,-92.0815,51.82,50,0,6.91
491,Vallenar,CL,2022-01-16 23:23:07,-28.5708,-70.7581,74.75,52,0,6.73
492,Morgan City,US,2022-01-16 23:23:07,29.6994,-91.2068,48.99,61,0,8.05
493,Olafsvik,IS,2022-01-16 23:23:08,64.8945,-23.7142,43.29,95,100,24.9
494,Ladybrand,ZA,2022-01-16 23:23:08,-29.1945,27.4574,62.53,86,53,3.2
495,Rawson,AR,2022-01-16 23:23:08,-43.3002,-65.1023,65.39,23,18,11.7
496,Goundam,ML,2022-01-16 23:23:09,16.4145,-3.6708,62.91,17,63,9.51
497,Otradnoye,RU,2022-01-16 23:23:09,59.7775,30.8181,35.04,98,100,13.2
498,Sur,OM,2022-01-16 23:23:09,22.5667,59.5289,69.58,77,0,11.97
499,Chengde,CN,2022-01-16 23:23:09,40.9725,117.9361,12.85,56,0,4.52
500,Blagoyevo,RU,2022-01-16 23:23:10,63.3667,47.9167,9.68,92,90,9.1
501,Nsanje,MW,2022-01-16 23:23:10,-16.92,35.262,72.48,93,100,2.13
502,Caravelas,BR,2022-01-16 23:23:10,-17.7125,-39.2481,77.02,84,1,7.4
503,Chopovychi,UA,2022-01-16 23:24:11,50.8332,28.9533,28.96,79,83,13.67
504,Ust-Karsk,RU,2022-01-16 23:24:11,52.7011,118.8077,-29.63,100,73,1.39
505,Verkhoyansk,RU,2022-01-16 23:24:12,67.5447,133.385,-45.09,100,83,1.05
506,Saint-Francois,FR,2022-01-16 23:24:12,46.4154,3.9054,27.68,100,100,1.14
507,Klaksvik,FO,2022-01-16 23:24:12,62.2266,-6.589,36.52,89,100,11.68
508,Jaggayyapeta,IN,2022-01-16 23:24:13,16.9,80.1,69.58,88,92,5.26
509,Karratha,AU,2022-01-16 23:24:13,-20.7377,116.8463,81.16,54,11,17.16
510,Marica,BR,2022-01-16 23:24:13,-22.9194,-42.8186,78.96,91,59,10.58
511,Besuki,ID,2022-01-16 23:24:14,-7.7338,113.6979,78.28,89,100,6.46
512,Nador,MA,2022-01-16 23:24:14,35.174,-2.9287,52.05,76,20,0.0
513,Andapa,MG,2022-01-16 23:24:14,-14.65,49.65,68.5,96,100,3.13
514,Araure,VE,2022-01-16 23:24:15,9.5601,-69.2148,83.43,52,92,2.42
515,Sesheke,ZM,2022-01-16 23:24:15,-17.4759,24.2968,66.52,54,85,1.72
516,Sitka,US,2022-01-16 23:24:15,57.0531,-135.33,39.09,87,100,0.0
517,Senneterre,CA,2022-01-16 23:24:16,48.3835,-77.2328,3.42,81,100,10.45
518,Gobabis,NA,2022-01-16 23:24:16,-22.45,18.9667,74.03,55,86,10.89
519,Buala,SB,2022-01-16 23:24:16,-8.145,159.5921,84.56,71,95,3.58
520,Vanavara,RU,2022-01-16 23:24:17,60.34,102.2797,-13.74,100,47,3.4
521,Alice Springs,AU,2022-01-16 23:21:02,-23.7,133.8833,74.75,78,100,12.66
522,Verkhnyaya Inta,RU,2022-01-16 23:24:17,65.9811,60.3094,-10.23,100,98,3.09
523,Egvekinot,RU,2022-01-16 23:24:18,66.3167,-179.1667,-16.44,87,8,10.83
524,Cacu,BR,2022-01-16 23:24:18,-18.5567,-51.1308,75.54,65,78,6.49
525,Agadir,MA,2022-01-16 23:24:18,30.4202,-9.5982,52.25,45,4,6.06
526,Seddon,AU,2022-01-16 23:24:19,-37.8068,144.8916,69.26,75,100,10.36
527,Athens,GR,2022-01-16 23:22:49,37.9795,23.7162,44.38,76,0,3.0
528,Berlevag,NO,2022-01-16 23:24:19,70.8578,29.0864,26.55,59,75,20.71
529,Broome,US,2022-01-16 23:24:19,42.2506,-75.833,25.7,65,100,1.99
530,Northam,GB,2022-01-16 23:24:20,51.0333,-4.2167,42.3,82,13,7.11
531,Sambava,MG,2022-01-16 23:24:20,-14.2667,50.1667,74.43,83,89,4.34
532,Bandarbeyla,SO,2022-01-16 23:24:20,9.4942,50.8122,75.04,67,86,11.81
533,Leon,MX,2022-01-16 23:24:21,21.1167,-101.6667,72.82,28,100,4.97
534,Ileza,RU,2022-01-16 23:24:21,61.0533,43.9002,20.68,94,100,9.69
535,Ouegoa,NC,2022-01-16 23:24:21,-20.35,164.4333,81.86,71,87,11.01
536,Vostok,RU,2022-01-16 23:24:22,46.4856,135.8833,-2.65,99,100,2.42
537,Guaymas,MX,2022-01-16 23:24:22,27.9333,-110.9,83.44,56,0,11.5
538,Valleyview,CA,2022-01-16 23:24:22,55.0667,-117.2859,31.15,99,100,3.29
539,Shache,CN,2022-01-16 23:24:22,38.4167,77.2406,24.44,51,3,3.49
540,Biak,ID,2022-01-16 23:24:23,-0.9131,122.8766,75.97,84,98,1.16
541,Talara,PE,2022-01-16 23:24:23,-4.5772,-81.2719,72.18,84,32,13.56
542,Vigrestad,NO,2022-01-16 23:24:23,58.5667,5.7,38.88,97,100,23.94
543,Necochea,AR,2022-01-16 23:21:25,-38.5473,-58.7368,65.03,74,93,20.94
544,Brewster,US,2022-01-16 23:20:49,41.3973,-73.6171,32.74,80,75,1.01
545,Tamazunchale,MX,2022-01-16 23:24:24,21.2667,-98.7833,62.85,43,34,3.87
546,Banda Aceh,ID,2022-01-16 23:24:24,5.5577,95.3222,76.91,86,57,8.84
547,Zhicheng,CN,2022-01-16 23:24:25,30.2956,111.5047,44.58,62,100,1.99
548,Port Macquarie,AU,2022-01-16 23:24:25,-31.4333,152.9167,81.9,74,31,6.46
549,Kalmunai,LK,2022-01-16 23:24:26,7.4167,81.8167,76.35,85,44,5.3
550,Iranshahr,IR,2022-01-16 23:24:26,27.2025,60.6848,60.58,74,84,7.81
551,Bara,NG,2022-01-16 23:24:26,10.3744,10.7288,68.16,19,89,9.19
552,Dawei,MM,2022-01-16 23:25:27,14.0833,98.2,67.55,84,93,3.6
553,College,US,2022-01-16 23:25:27,64.8569,-147.8028,5.58,85,75,0.0
554,Strelka,RU,2022-01-16 23:25:28,58.0728,93.0344,6.66,98,100,5.21
555,Ginda,IN,2022-01-16 23:25:28,30.6945,78.4932,43.68,38,93,6.69
556,Peniche,PT,2022-01-16 23:24:56,39.3558,-9.3811,53.1,83,59,8.5
557,Deggendorf,DE,2022-01-16 23:25:28,48.8333,12.9667,36.99,80,100,8.88
558,Zhigansk,RU,2022-01-16 23:25:29,66.7697,123.3711,-49.68,100,66,4.99
559,Albanel,CA,2022-01-16 23:25:29,48.8832,-72.4487,6.94,66,94,10.36
560,Floro,NO,2022-01-16 23:25:30,61.5996,5.0328,33.22,74,75,29.93
561,Hargeysa,SO,2022-01-16 23:25:30,9.56,44.065,61.29,91,88,5.86
562,Key West,US,2022-01-16 23:25:30,24.5557,-81.7826,73.4,67,100,17.27
563,Kalachinsk,RU,2022-01-16 23:25:31,55.0529,74.5751,22.42,83,100,22.82
564,Itaqui,BR,2022-01-16 23:25:31,-29.1253,-56.5531,96.01,28,82,9.28
565,Madera,US,2022-01-16 23:21:23,37.1666,-119.8343,66.24,59,92,1.01
566,Olden,NO,2022-01-16 23:25:32,61.8364,6.8064,33.26,96,100,11.16
567,Ocos,GT,2022-01-16 23:25:33,14.5094,-92.1933,88.3,64,1,7.2
568,Novozybkov,RU,2022-01-16 23:25:33,52.5396,31.9275,28.13,90,70,12.77
569,Neuquen,AR,2022-01-16 23:25:33,-38.9516,-68.0591,71.49,24,0,4.61
570,Kagalnitskaya,RU,2022-01-16 23:25:34,46.8806,40.1466,30.83,91,48,5.1
571,Chapleau,CA,2022-01-16 23:25:34,47.8405,-83.4034,17.69,79,100,6.91
572,Luvianos,MX,2022-01-16 23:25:34,18.9167,-100.4,73.74,41,12,4.83
573,Pangoa,PE,2022-01-16 23:25:35,-12.1167,-73.0,77.16,71,42,1.16
574,Khash,IR,2022-01-16 23:25:35,28.2211,61.2158,50.07,86,86,9.1
575,Lancaster,US,2022-01-16 23:25:06,40.2504,-76.2499,25.52,86,100,3.0
576,Empangeni,ZA,2022-01-16 23:25:36,-28.762,31.8933,71.42,91,100,3.89
577,Jining,CN,2022-01-16 23:25:36,35.405,116.5814,31.03,71,2,3.18
578,Marigot,MF,2022-01-16 23:25:36,18.0667,-63.0833,78.58,75,20,10.36
579,Poronaysk,RU,2022-01-16 23:25:37,49.2167,143.1167,7.95,95,95,6.71
580,Poya,NC,2022-01-16 23:25:37,-21.35,165.15,82.89,62,52,4.0
581,Thinadhoo,MV,2022-01-16 23:25:37,0.5333,72.9333,81.14,69,100,0.36
582,Cayeli,TR,2022-01-16 23:25:38,41.0923,40.7292,36.99,88,100,4.88
583,Aksu,CN,2022-01-16 23:25:38,41.1231,80.2644,23.92,60,3,3.13
584,Jinxiang,CN,2022-01-16 23:25:38,27.4327,120.6062,47.93,92,100,11.81
585,Padilla,CO,2022-01-16 23:25:39,3.2204,-76.3139,78.37,84,79,0.85
586,Bryanka,UA,2022-01-16 23:25:39,48.511,38.6722,18.59,95,43,6.89
587,Prieska,ZA,2022-01-16 23:25:40,-29.6641,22.7474,81.84,46,71,9.73
588,Kirakira,SB,2022-01-16 23:25:40,-10.4544,161.9205,85.14,75,73,6.96
>>>>>>> f0705274ef1ca17b08d784a1c7d545eed6b52788
